,contentsid,title,roadaddress,tag,introduction,latitude,longitude,contentscd.label,phoneno,repPhoto.photoid.imgpath,repPhoto.photoid.thumbnailpath,인기점수,tag_len,popular_tag,len
4051,CNTS_000000000020072,제주김만복(만복이네김밥집),제주특별자치도 제주시 오라로 41,"['전복김밥', '통전복주먹밥', '미역국', '음식', '해물라면', '라면']","전복내장으로 만든 김밥, 심플한 메뉴로 많은 여행객들에게 사랑받는 곳",33.4970489,126.5087309,음식점,064-759-8582,https://api.cdn.visitjeju.net/photomng/imgpath/201804/30/dbd4e45a-3b53-444c-b0dd-740840f9d749.jpg,https://api.cdn.visitjeju.net/photomng/thumbnailpath/201804/30/40ae8c39-9888-4a75-84b7-23be785115a5.jpg,144324.0,26,"음식,라면,해물라면",10
3548,CNTS_000000000018337,봄날카페,제주특별자치도 제주시 애월읍 애월로1길 25,"['카페', '커피', '음료', '음식', '콜드브루', '아메리카노', '바닐라라떼', '카페라떼', '아인슈페너', '카푸치노', '카페모카', '카라멜마끼아또', '아이스티']",드라마 '맨도롱 또똣'의 주인공이 일하던 카페,33.46246,126.30959,음식점,064-799-4999,https://api.cdn.visitjeju.net/photomng/imgpath/201804/30/88f3b319-b8d8-4618-bc75-7202ba68a578.jpg,https://api.cdn.visitjeju.net/photomng/thumbnailpath/201804/30/cee2e88e-7b94-4fcd-b23b-edbeef415414.jpg,121065.0,62,"아메리카노,카페모카,바닐라라떼,카푸치노,음료,카페,커피,음식,카페라떼",38
3990,CNTS_000000000020099,올래국수,제주특별자치도 제주시 귀아랑길 24 (연동),"['고기국수', '한식', '향토음식', '음식']",제주 향토 음식인 고기국수 전문점이다. 2016 KOREAT JEJU TOP 10 선정,33.4915,126.4973,음식점,064-742-7355,https://api.cdn.visitjeju.net/photomng/imgpath/201804/30/0080b083-ce7c-459d-a78e-5d1b6b87d5ff.jpg,https://api.cdn.visitjeju.net/photomng/thumbnailpath/201804/30/b260b806-c465-44fe-bfcb-feaec817ad53.jpg,119913.0,15,"한식,음식,향토음식,고기국수",15
3505,CNTS_000000000020047,명진전복,제주특별자치도 제주시 구좌읍 해맞이해안로 1282,"['전복', '돌솥밥', '회', '음식', '전복해물탕', '전복죽', '전복뚝배기', '전복버터구이', '전복물회']",제주도 대표 전복요리 전문점 2016 KOREAT JEJU TOP10 선정,33.53242,126.84985,음식점,064-782-9944,https://api.cdn.visitjeju.net/photomng/imgpath/201804/30/ef12eb59-756e-4e9b-a227-60eb3fbd8cf4.gif,https://api.cdn.visitjeju.net/photomng/thumbnailpath/201804/30/58008d96-a5b2-4bd0-a392-0e753b33267b.gif,92336.0,39,"전복죽,전복물회,회,음식,전복뚝배기,전복",22
4170,CNTS_000000000019253,몽상드애월(몽상),제주특별자치도 제주시 애월읍 애월북서길 56-1,"['카페', '커피', '음료', '디저트', '음식', '아메리카노', '에스프레소', '카페모카', '카라멜마끼아또', '밀크티', '에이드']",제주 애월 한담에 위치하여 멋진 바다경관을 감상할 수 있는 해안로의 카페,33.463326,126.309204,음식점,064-799-0090,https://api.cdn.visitjeju.net/photomng/imgpath/201909/30/fd3e8aae-900d-4cfb-8442-d59790e0da13.jpg,https://api.cdn.visitjeju.net/photomng/thumbnailpath/201909/30/b1d99bae-68fe-406a-8871-2bb99f3f968a.jpg,87526.0,48,"아메리카노,디저트,카페모카,음료,카페,커피,음식,에스프레소,에이드",36
3733,CNTS_000000000020104,돈사돈,제주특별자치도 제주시 우평로 19,"['근고기', '연탄구이', '목살', '오겹살', '흑돼지', '음식', '삼겹살']","제주 흑돼지 근고기 연탄구이집으로, 양질의 고기뿐만 아니라 연예인들의 방문 후기와 TV출연으로도 유명해진 곳, KOREAT JEJU TOP10 선정",33.47887,126.46408,음식점,064-746-8989,https://api.cdn.visitjeju.net/photomng/imgpath/201804/30/64a751af-12ab-49b6-8d52-7d753a0be7ee.gif,https://api.cdn.visitjeju.net/photomng/thumbnailpath/201804/30/9fd347c1-f73d-45fe-80e0-79e714f7c758.gif,78416.0,26,"음식,오겹살,목살,삼겹살,흑돼지",17
3460,CNTS_000000000018357,서연의집(영화 건축학개론),제주특별자치도 서귀포시 남원읍 위미해안로 86,"['카페', '커피', '아메리카노', '음식', '디저트', '빵', '와플', '에스프레소', '카페모카']",영화 '건축학개론' 속 서연의 집을 리모델링하여 오픈한 카페&갤러리,33.269413,126.655876,음식점,064-764-7894,https://api.cdn.visitjeju.net/photomng/imgpath/201804/30/6ad03b5e-ddb1-466d-b18f-48ee6661c1bd.jpg,https://api.cdn.visitjeju.net/photomng/thumbnailpath/201804/30/743dbc0b-85bf-47f5-bd58-b7228e6917f3.jpg,75414.0,34,"아메리카노,디저트,카페모카,카페,커피,음식,빵,에스프레소",31
4053,CNTS_000000000020103,순옥이네 명가,제주 제주시 도공로 8,"['전복물회', '성게미역국', '해물뚝배기', '전복', '성게', '음식', '전복뚝배기']",도두동에 위치한 전복요리전문집 2016 KOREAT JEJU TOP10 선정,33.505558,126.465065,음식점,064-743-4813,https://api.cdn.visitjeju.net/photomng/imgpath/201804/30/789bdb61-a9a6-409b-9695-d661d6a12cb5.gif,https://api.cdn.visitjeju.net/photomng/thumbnailpath/201804/30/2b4d1373-58b4-4e82-ab2d-eaf11469c47a.gif,72581.0,31,"해물뚝배기,전복물회,음식,전복뚝배기,전복,성게미역국",28
4175,CNTS_000000000018307,가시아방,제주특별자치도 서귀포시 성산읍 섭지코지로 10,"['고기국수', '비빔국수', '향토음식', '음식']",제주도 사투리로 장인이라는 뜻의 가시아방은 고기국수와 돔베고기가 유명한 성산읍 맛집,33.4242095,126.931111,음식점,064-783-0987,https://api.cdn.visitjeju.net/photomng/imgpath/201804/30/4f60ac3e-9226-4b77-af1e-e75a814ec889.jpeg,https://api.cdn.visitjeju.net/photomng/thumbnailpath/201804/30/ddc8e75e-c2c6-482e-b3eb-3c0468973a88.jpeg,70598.0,17,"향토음식,음식,고기국수",12
3870,CNTS_000000000001172,춘심이네,제주특별자치도 서귀포시 안덕면 창천중앙로24번길 16,"['무슬림', '갈치조림', '통갈치', '은갈치', '음식', '제주갈치조림', '제주갈치구이', '갈치구이', '안전여행스탬프']",서귀포시 안덕면에 위치한 제주 은갈치 본연의 맛을 느낄 수 있는 음식점,33.2647887,126.3707772,음식점,064-794-4010,https://api.cdn.visitjeju.net/photomng/imgpath/202205/30/e3bda02d-b09c-4f3e-b54c-afcb0dbc9f17.jpg,https://api.cdn.visitjeju.net/photomng/thumbnailpath/202205/30/74e75269-3ccd-4bc1-a813-564ad289f0b1.jpg,54610.0,46,"제주갈치구이,갈치구이,음식,갈치조림",19
4263,CONT_000000000501154,리치망고,제주특별자치도 제주시 애월읍 애월해안로 272,"['스페셜망고쉐이크', '망고라떼', '수제망고코코넛잽', '망고코코넛쿠키', '카페', '망고', '음식', '망고스무디', '망고에이드', '망고주스']",제주 애월에 런칭하여 제주 전역으로 확장한 망고음료카페,33.4683713,126.3402434,음식점,070-4243-5959,https://api.cdn.visitjeju.net/photomng/imgpath/201804/30/97bd08a9-93ce-43c6-9758-36dff639848a.jpg,https://api.cdn.visitjeju.net/photomng/thumbnailpath/201804/30/303c1c5b-0fef-4fe5-957b-b83f7a2a4f26.jpg,53891.0,56,"카페,음식",5
1381,CNTS_000000000018391,김지순의 낭푼밥상,제주특별자치도 제주시 연동6길 28,"['한식코스', '한식', '향토음식', '제주요리', '전통주', '음식']",제주의 재료를 담은 낭푼 밥상. 귀한 손님이나 외국손님을 모실 때 추천할만한 제주 음식을 전문으로 하는 파인다이닝 레스토랑이다. 주차도 편안하다.,33.483483,126.4890064,음식점,064-799-0005,https://api.cdn.visitjeju.net/photomng/imgpath/202111/08/9c457f1a-a857-4504-abea-b9581fab55e6.jpg,https://api.cdn.visitjeju.net/photomng/thumbnailpath/202111/08/db7f2d47-e74e-471d-80d3-f50f577ecdf2.jpg,52994.0,24,"향토음식,음식,한식",10
1337,CNTS_000000000020162,운정이네,제주특별자치도 서귀포시 안덕면 일주서로 1524,"['갈치조림', '정식', '고등어구이', '갈치구이', '고등어조림', '음식', '제주갈치조림', '제주갈치구이', '생선구이정식', '생선조림', '전복뚝배기']","전복, 옥돔, 갈치, 제주의 음식을 한번에 맛보는 운정이네",33.258415,126.35306,음식점,064-738-3883,https://api.cdn.visitjeju.net/photomng/imgpath/201909/30/3ae2e00d-accb-42a5-8605-cf0e73e34dda.jpg,https://api.cdn.visitjeju.net/photomng/thumbnailpath/201909/30/2c6d22ac-0e97-4b01-b981-1e714533bd85.jpg,48094.0,59,"갈치구이,생선구이정식,정식,고등어조림,음식,전복뚝배기,생선조림,갈치조림,제주갈치구이,고등어구이",52
3153,CNTS_000000000018299,애월더선셋,제주특별자치도 제주시 애월읍 일주서로 6111,"['카페', '커피', '브런치', '음식', '토스트', '아메리카노', '에이드', '과일주스']",애월에 위치한 애월더선셋은 노을 지는 애월 바다를 감상할 수 있는 오션뷰 브런치 카페로 운치 있는 분위기는 물론이며 맛 좋은 디저트와 음료를 제공하고 있다.,33.4560041,126.3089078,음식점,064-799-7177,https://api.cdn.visitjeju.net/photomng/imgpath/202201/10/25d4e1c3-36c5-4a68-83c0-1574de4b40fc.jpg,https://api.cdn.visitjeju.net/photomng/thumbnailpath/202201/10/a74372ea-32ec-4d24-8c21-b7e16678694e.jpg,47707.0,31,"아메리카노,카페,커피,음식,브런치,과일주스,에이드",27
3973,CNTS_200000000007431,濟州膳제주선,제주특별자치도 서귀포시 안덕면 신화역사로304번길 38,"['한식', '흑돼지', '한우', '갈치', '고소리술', '음식']",메리어트관 제주신화월드에 위치한 한식 전문점,33.30761436022692,126.31751297987056,음식점,064-908-1260,https://api.cdn.visitjeju.net/photomng/imgpath/201904/02/3824e44f-69df-488f-87b1-a4ea438c8438.jpg,https://api.cdn.visitjeju.net/photomng/thumbnailpath/201904/02/26cb564f-3c84-4833-aa02-6aafd1cd59ae.jpg,43422.0,20,"한식,음식,갈치,흑돼지",12
1328,CNTS_000000000001501,델문도,제주특별자치도 제주시 조천읍 조함해안로 519-10,"['카페', '커피', '빙수', '음식', '아메리카노', '에스프레소', '카페라떼', '젤라또', '바닐라라떼', '카페모카']",함덕 해수욕장 한가운데에 위치한 서우봉과 해변 풍경이 아름다운 카페,33.54379,126.668846,음식점,064-702-0007,https://api.cdn.visitjeju.net/photomng/imgpath/201804/30/8577b39c-9ab7-4f8d-a5f1-c09ca6b6b15e.jpg,https://api.cdn.visitjeju.net/photomng/thumbnailpath/201804/30/67745b1a-f5c3-44f9-a6cb-5035776ea075.jpg,42764.0,43,"아메리카노,카페모카,바닐라라떼,카페,커피,음식,카페라떼,에스프레소,빙수",39
1329,CNTS_000000000001501,델문도,제주특별자치도 제주시 조천읍 조함해안로 519-10,"['카페', '커피', '빙수', '음식', '아메리카노', '에스프레소', '카페라떼', '젤라또', '바닐라라떼', '카페모카']",함덕 해수욕장 한가운데에 위치한 서우봉과 해변 풍경이 아름다운 카페,33.54379,126.668846,음식점,064-702-0007,https://api.cdn.visitjeju.net/photomng/imgpath/201804/30/8577b39c-9ab7-4f8d-a5f1-c09ca6b6b15e.jpg,https://api.cdn.visitjeju.net/photomng/thumbnailpath/201804/30/67745b1a-f5c3-44f9-a6cb-5035776ea075.jpg,42764.0,43,"아메리카노,카페모카,바닐라라떼,카페,커피,음식,카페라떼,에스프레소,빙수",39
3289,CNTS_000000000019940,어진이네횟집,제주특별자치도 서귀포시 보목포로 93,"['회', '횟집', '자리물회', '물회', '음식', '한치물회', '전복물회', '문어물회', '소라물회', '매운탕', '한치']","가장 푸짐하고 정직한 물회를 먹을 수 있는 곳, 2016 KOREAT JEJU TOP 10 선정",33.2408963,126.6106901,음식점,064-732-7442,https://api.cdn.visitjeju.net/photomng/imgpath/201908/02/acd92f92-3f0a-485c-adce-554659bcb72f.JPG,https://api.cdn.visitjeju.net/photomng/thumbnailpath/201908/02/dd362f66-2957-453b-a63d-825927172a6a.JPG,40582.0,42,"전복물회,물회,회,음식,매운탕,횟집,한치,한치물회",27
1578,CNTS_000000000020344,섭지코지 해녀밥상,제주특별자치도 서귀포시 성산읍 신양로122번길 60-6,"['정식', '해산물', '전복구이', '소라', '성게', '해삼', '음식', '전복버터구이', '성게미역국', '옥돔', '옥돔구이']",제주라서 가능한 해녀 밥상,33.4357261,126.9175484,음식점,064-782-4705,https://api.cdn.visitjeju.net/photomng/imgpath/202111/16/f8cd7a6b-92c8-4e1c-9cee-a294aefa15a0.jpg,https://api.cdn.visitjeju.net/photomng/thumbnailpath/202111/16/ebe535c0-35cd-4498-a09c-e0786bb7d6a9.jpg,40296.0,44,"해산물,옥돔구이,정식,음식,성게미역국",20
1604,CNTS_000000000018379,미친부엌,제주특별자치도 제주시 탑동로 15,"['퓨전', '주점', '크림짬뽕', '혼술', '혼밥', '음식', '회', '해산물', '고등어회', '스시', '초밥']",밤 늦게까지 주류와 퓨전 일식을 즐길 수 있는 음식점.  '미친'이라는 상호는 '맛 미'와 '친할 친'의 한자 음가에서 가져왔다.,33.517007,126.5231956,음식점,064-721-6382,https://api.cdn.visitjeju.net/photomng/imgpath/201804/30/79f9fdaf-8848-4738-aac9-d34a20c76d0d.jpg,https://api.cdn.visitjeju.net/photomng/thumbnailpath/201804/30/56a97d59-0a01-4790-a7e3-9021ee0340ff.jpg,40132.0,36,"초밥,해산물,회,음식,고등어회",16
3036,CNTS_000000000018301,우유부단,제주특별자치도 제주시 한림읍 금악동길 38,"['카페', '디저트', '아이스크림', '우유', '음식', '눈꽃우유빙수', '밀크티']",이시돌 목장에서 생산된 유기농 우유로 만든 유제품 디저트를 만날 수 있는 곳,33.34764,126.32826,음식점,064-796-2033,https://api.cdn.visitjeju.net/photomng/imgpath/201804/30/19b30440-f6bb-4978-a861-6f3e85620083.jpg,https://api.cdn.visitjeju.net/photomng/thumbnailpath/201804/30/3e416add-f614-4ce4-80ce-2a302ffae6f1.jpg,39696.0,29,"카페,아이스크림,음식,디저트",15
3272,CNTS_000000000018375,우진해장국,제주특별자치도 제주시 서사로 11,"['해장국', '고사리육개장', '사골해장국', '녹두빈대떡', '음식', '몸국']",제주 향토 음식인 고사리 해장국을 만날 수 있는 한식당,33.5114884,126.5200864,음식점,064-757-3393,https://api.cdn.visitjeju.net/photomng/imgpath/202110/22/d3315a0a-ccf0-4f0d-93c1-12c804558a71.JPG,https://api.cdn.visitjeju.net/photomng/thumbnailpath/202110/22/a2f878cb-65ac-4ed8-ae18-c8850c45471a.JPG,39624.0,28,"음식,몸국,해장국",9
1190,CNTS_000000000020143,고집돌우럭(제주공항점),제주특별자치도 제주시 임항로 30,"['우럭', '우럭조림', '우럭매운탕', '음식', '횔어우럭매운탕']",오직 제주도에서만 먹을 수 있는 탱글탱글한 돌우럭 조림,33.5163432,126.5281752,음식점,064-722-1008,https://api.cdn.visitjeju.net/photomng/imgpath/201804/30/42361676-13c9-4879-a072-c219d06599c6.jpg,https://api.cdn.visitjeju.net/photomng/thumbnailpath/201804/30/67750d76-be1e-48e0-8ddf-72ac37ef78e1.jpg,39036.0,24,음식,2
3609,CNTS_000000000021950,고집돌우럭(중문),제주특별자치도 서귀포시 일주서로 879,"['우럭', '우럭조림', '우럭매운탕', '음식', '매운탕', '횔어우럭매운탕', '갈치구이', '생선구이정식']",메인메뉴는 탱글탱글 살아있는 식감의 우럭조림,33.25799,126.41676,음식점,064-738-1540,https://api.cdn.visitjeju.net/photomng/imgpath/201804/30/4c7cb04a-1511-4342-88c4-f4e94e63183b.jpg,https://api.cdn.visitjeju.net/photomng/thumbnailpath/201804/30/0182741b-8637-4e4a-bd31-7ed8b1bcce98.jpg,37053.0,40,"생선구이정식,갈치구이,매운탕,음식",18
3793,CNTS_000000000018400,명랑스낵,제주특별자치도 제주시 한림읍 한림로 585,"['떡볶이', '왕새우튀김', '흑돼지튀김', '생맥주', '짜장떡볶이', '음식']",제주시 한림읍에 위치한 분식집인 명랑스낵은 아늑한 실내에서도 음식을 즐길 수 있으며 옥상에도 테이블이 있어 넓은 바다와 비양도를 보면서 음식을 즐길 수 있다. ,33.409283,126.258835,음식점,070-4121-1110,https://api.cdn.visitjeju.net/photomng/imgpath/202203/11/3991da7a-b581-43a7-827d-9b59e66e6ea6.jpg,https://api.cdn.visitjeju.net/photomng/thumbnailpath/202203/11/daa7e2fc-971e-43b8-865a-1fe943d1aad4.jpg,35807.0,28,"떡볶이,음식",6
3689,CNTS_000000000018390,테라로사,제주특별자치도 서귀포시 칠십리로658번길 27-16,"['커피', '빵', '카페', '원두', '음식', '아메리카노', '카페라떼', '카푸치노', '핸드드립커피', '에스프레소', '디저트']","커피와 빵으로 유명한 테라로사의 서귀포지점, 쇠소깍근처, 커피용품판매",33.24944,126.618935,음식점,033-648-2760,https://api.cdn.visitjeju.net/photomng/imgpath/201804/30/a98546be-22b6-4d6a-af9a-aefd312142fd.jpg,https://api.cdn.visitjeju.net/photomng/thumbnailpath/201804/30/a8c2acfe-51e3-4495-bf0c-2c09edcd5a91.jpg,35483.0,46,"아메리카노,디저트,핸드드립커피,카푸치노,카페,커피,음식,카페라떼,빵,에스프레소",43
3078,CNTS_000000000020142,김희선몸국,제주특별자치도 제주시 어영길 45-6,"['몸국', '향토음식', '한식', '음식', '고사리', '해장국', '성게미역국', '고등어구이']","건강에 좋은 모자반을 돼지뼈 육수와 함께 한소끔 끓여낸 담백한 몸국, 고사리 육개장으로 유명한 곳",33.5185392,126.4981208,음식점,064-745-0047,https://api.cdn.visitjeju.net/photomng/imgpath/202111/03/e53a0ff1-77db-433f-a0ad-e3482c24a0d2.jpg,https://api.cdn.visitjeju.net/photomng/thumbnailpath/202111/03/2bd6c357-8cf6-498d-b9d1-d50571cd7b2c.jpg,34997.0,33,"향토음식,몸국,음식,성게미역국,한식,고등어구이,해장국",29
3758,CNTS_000000000020150,벵디,제주특별자치도 제주시 구좌읍 해맞이해안로 1108,"['덮밥', '톳밥', '돌문어', '음식', '물회', '문어물회', '돈까스', '치즈돈까스']",돌문어 한마리가 통째로 들어간 덮밥이 유명한 평대리의 맛집,33.53775,126.83721,음식점,070-8899-7824,https://api.cdn.visitjeju.net/photomng/imgpath/201804/30/18cf4ab8-9ce0-4acc-847b-3cbdf565e445.jpg,https://api.cdn.visitjeju.net/photomng/thumbnailpath/201804/30/bd90ee5a-140d-49af-b8e6-dde635b0f175.jpg,34865.0,30,"음식,돈까스,물회",9
3821,CNTS_000000000022562,마노르블랑,서귀포시 안덕면 일주서로2100번길 46,"['카페', '커피', '음료', '애프터눈티', '음식', '아메리카노', '바닐라라떼', '카페라떼', '녹차라떼', '돌체라떼', '딸기라떼', '디저트', '빵', '에이드', '주스', '과일주스']",산방산과 형제섬의 동쪽으로 한라산이 보이는 분위기 좋은 카페,33.254242,126.29465,음식점,064-794-0999,https://api.cdn.visitjeju.net/photomng/imgpath/201804/30/0260eac5-7e18-425a-aa83-7f7fa2902878.jpg,https://api.cdn.visitjeju.net/photomng/thumbnailpath/201804/30/f8853437-8984-495d-b43d-9897917bf4ce.jpg,34741.0,67,"아메리카노,디저트,바닐라라떼,음료,카페,커피,음식,카페라떼,녹차라떼,빵,주스,과일주스,에이드",51
3594,CONT_000000000501172,국수의전설,제주특별자치도 서귀포시 효돈로 108,"['고기국수', '보말칼국수', '수육', '향토음식', '한식', '음식', '비빔국수', '돔베고기', '보말죽', '칼국수']",담백한 고기국수와 새콤달콤한 비빔국수뿐만 아니라 다양한 국수의 진수를 느낄 수 있는 곳,33.26347,126.61043,음식점,064-733-7101,https://api.cdn.visitjeju.net/photomng/imgpath/201804/30/af071ce8-b320-4dfe-9939-500b74f4d672.jpg,https://api.cdn.visitjeju.net/photomng/thumbnailpath/201804/30/d2d25247-94ef-483d-85dc-abf7cc8f0693.jpg,34583.0,42,"향토음식,칼국수,보말칼국수,음식,돔베고기,고기국수,한식",30
3484,CNTS_000000000020061,피어22,제주특별자치도 제주시 한림읍 금능7길 22,"['해산물찜', '해산물', '딱새우', '음식', '전복죽', '감바스', '빵']","바스켓 가득 랍스터테일, 딱새우, 홍합을 포함 각종 신선한 해산물을 케이준 스타일로 즐길 수 있는 이색맛집",33.389317,126.22804,음식점,064-796-7787,https://api.cdn.visitjeju.net/photomng/imgpath/201804/30/66626ca5-dd47-40ae-8f17-cd8d6f107629.jpg,https://api.cdn.visitjeju.net/photomng/thumbnailpath/201804/30/236d174e-4ce1-44f5-9ef3-6326bb13c4d8.jpg,33197.0,25,"전복죽,음식,해산물,빵",12
1331,CNTS_000000000020098,구좌상회,제주특별자치도 제주시 구좌읍 월정1길 55,"['카페', '케이크', '음료', '음식', '디저트', '빵', '아메리카노']","여성 여행객들에게 사랑받는 킨포크 느낌의 예쁜 카페, 구좌당근케이크가 유명",33.54681,126.78381,음식점,010-6600-6648,https://api.cdn.visitjeju.net/photomng/imgpath/201804/30/85f430da-9c37-4a50-b9ac-12d575f6acf0.jpg,https://api.cdn.visitjeju.net/photomng/thumbnailpath/201804/30/b779430a-9c24-46fd-9b96-72cd973fff64.jpg,32923.0,24,"케이크,아메리카노,디저트,음료,카페,음식,빵",24
1699,CNTS_200000000007430,르 쉬느아 (Le Chinois),제주특별자치도 서귀포시 안덕면 신화역사로304번길 38 메리어트관 제주신화월드 호텔앤리조트 G층,"['중국음식', '딤섬', '북경오리', '불도장', '음식', '오리고기', '오리로스']","2018제주 푸드 앤 와인 페스티벌, 고메위크 선정된 제주신화월드 시그니쳐 중식 레스토랑",33.30761439413298,126.31747001586916,음식점,064-908-1240,https://api.cdn.visitjeju.net/photomng/imgpath/201904/01/70136ab8-ea3d-422a-ae1b-7f2157105920.jpg,https://api.cdn.visitjeju.net/photomng/thumbnailpath/201904/01/e5faf72c-be28-45c6-b534-137bc596fc76.jpg,32304.0,29,음식,2
3419,CNTS_000000000018578,하하호호(HAHAHOHO),제주특별자치도 제주시 우도면 우도해안길 532,"['흑돼지수제버거', '수제버거', '땅콩아이스크림', '음식', '햄버거', '아메리카노', '감자튀김', '에이드', '레몬에이드', '아이스크림']","우도 북쪽, 우도 본연의 분위기가 살아있는 흑돼지 수제 햄버거집",33.50332,126.95568,음식점,010-2899-1365,https://api.cdn.visitjeju.net/photomng/imgpath/201804/30/1372a88f-0fe3-4986-8b70-458d7d4fa45f.png,https://api.cdn.visitjeju.net/photomng/thumbnailpath/201804/30/0bd06c2c-900d-4189-a4b4-61e6c568af6c.png,31885.0,54,"아메리카노,음식,아이스크림,에이드",18
1358,CNTS_000000000020678,만덕이네,제주특별자치도 서귀포시 표선면 서성일로 16,"['향토음식', '갈치조림', '두루치기', '접짝뼈국', '음식', '제주갈치조림', '갈치구이', '제주갈치구이', '고등어구이', '고등어', '옥돔구이']",성읍민속마을 인근에 위치한 향토음식전문점인 만덕이네는 한식명인이 직접 음식을 준비하며 여러 방송 프로그램에 출연한 경력이 있는 곳이다.,33.39333,126.80123,음식점,064-787-3827,https://api.cdn.visitjeju.net/photomng/imgpath/202203/11/0c453408-ff6a-41c1-af73-32b2ce452966.jpg,https://api.cdn.visitjeju.net/photomng/thumbnailpath/202203/11/13fd7369-45b0-4eaa-8acc-20fa740b2888.jpg,31533.0,56,"향토음식,갈치구이,옥돔구이,두루치기,고등어,음식,갈치조림,고등어구이,제주갈치구이",44
3482,CNTS_000000000020110,대우정,제주특별자치도 서귀포시 이어도로 866-37,"['해물뚝배기', '전복', '돌솥밥', '고등어', '음식', '옥돔구이', '전복뚝배기', '성게미역국', '제육볶음']",이중섭거리에 위치한 해산물 전문 식당이다. 마가린에 비벼먹는 전복돌솥밥이 유명하다.,33.2331332,126.5070238,음식점,064-733-0137,https://api.cdn.visitjeju.net/photomng/imgpath/202111/12/cda28ed4-39d4-4a4a-a41f-2129540dced9.jpg,https://api.cdn.visitjeju.net/photomng/thumbnailpath/202111/12/17398ef7-fb51-44f1-8cc0-3f191cada4d3.jpg,31033.0,41,"해물뚝배기,옥돔구이,고등어,음식,전복뚝배기,전복,성게미역국",32
2683,CNTS_000000000018374,한림칼국수,제주특별자치도 제주시 한림읍 한림해안로 141,"['칼국수', '보말', '보말칼국수', '음식', '닭칼국수', '보말죽']",보말칼국수가 유명한 집,33.4155701,126.2615642,음식점,070-8900-3339,https://api.cdn.visitjeju.net/photomng/imgpath/202201/10/d8a205f8-2cd9-4c31-a300-becfa2220df6.jpg,https://api.cdn.visitjeju.net/photomng/thumbnailpath/202201/10/36da0af9-5842-49d9-af2d-0a9b7b29e96f.jpg,30293.0,24,"보말칼국수,음식,칼국수",12
3379,CNTS_000000000018312,카페공작소,제주특별자치도 제주시 구좌읍 해맞이해안로 1446,"['카페', '수제케이크', '에이드', '제주음료', '음식', '아메리카노', '카페라떼', '감귤', '주스', '청귤차', '에스프레소', '케이크']",아름다운 세화 바다를 바라보면서 커피 한 잔의 여유를 즐길 수 있는 카페,33.524647,126.85994,음식점,070-4548-0752,https://api.cdn.visitjeju.net/photomng/imgpath/201804/30/c321f139-2382-43fe-9cd4-78c109501c50.jpg,https://api.cdn.visitjeju.net/photomng/thumbnailpath/201804/30/73a8adaa-0297-4822-8916-c2cc300dff7a.jpg,29505.0,51,"케이크,아메리카노,카페,카페라떼,음식,주스,에스프레소,에이드",33
3506,CNTS_000000000021190,협재해녀의집,제주특별자치도 제주시 한림읍 협재3길 19,"['해물라면', '해물죽', '해산물조림', '해산물구이', '해물뚝배기', '음식', '라면']",​​​​​​​해물을 가득 올린 뚝배기 한그릇,33.39883,126.24401,음식점,064-796-7773,https://api.cdn.visitjeju.net/photomng/imgpath/202111/05/c6c152ee-699e-4157-b983-a6c7cf89354d.jpg,https://api.cdn.visitjeju.net/photomng/thumbnailpath/202111/05/162cf069-1d8b-460b-ae84-d639a78e8de0.jpg,29052.0,32,"음식,해물뚝배기,라면,해물라면",16
3661,CNTS_000000000019250,바다다,제주특별자치도 서귀포시 대포로 148-15,"['음료', '칵테일', '버거', '음식', '레몬에이드', '커피', '쿠키']",하우스음악과 칵테일 음식 등을 즐길 수 있는 Beach Lounge,33.236816,126.437065,음식점,064-738-2882,https://api.cdn.visitjeju.net/photomng/imgpath/201804/30/58f8a2ae-6666-4e69-ade7-93ce61616bef.jpg,https://api.cdn.visitjeju.net/photomng/thumbnailpath/201804/30/9b20bc0a-5c29-4336-b3b3-6a67eaf76996.jpg,28878.0,24,"음식,커피,음료",8
1555,CNTS_000000000020026,고래라면,제주특별자치도 서귀포시 성산읍 삼달로 104,"['라면', '국수', '비빔국수', '음식', '해물라면', '문어라면']","라면과 해물의 만남, 문어라면",33.37195,126.85841,음식점,064-782-6685,https://api.cdn.visitjeju.net/photomng/imgpath/201810/30/e79ebbdc-ab46-4260-898b-14ede1e8906b.jpg,https://api.cdn.visitjeju.net/photomng/thumbnailpath/201810/30/4ec7cfc8-2dcb-441a-8fdd-fb681658a6a5.jpg,28624.0,23,"음식,라면,해물라면",10
3648,CNTS_000000000020621,수두리보말칼국수,제주특별자치도 서귀포시 천제연로 192,"['톳보말칼국수', '톳성게칼국수', '칼국수', '음식', '전복죽', '막걸리']",제주 자연산 보말과 성게로 만든 칼국수가 유명한 곳,33.2515765,126.4251078,음식점,064-739-1070,https://api.cdn.visitjeju.net/photomng/imgpath/202110/29/b3543a1f-085d-4c0f-bc0b-53cbb0d7491a.jpg,https://api.cdn.visitjeju.net/photomng/thumbnailpath/202110/29/9c1903ea-3307-4f7a-9360-9231e182ffbc.jpg,28343.0,28,"전복죽,음식,칼국수",10
1313,CONT_000000000501382,최고집,제주특별자치도 서귀포시 김정문화로 71,"['항정상', '오겹살', '속풀이라면', '음식', '흑돼지', '라면']",1등급 이상의 제주 백돼지를 맛볼 수 있는 곳이다. 항정살과 오겹살에만 집중하여 최고의 맛을 선보인다.,33.2507966,126.5123065,음식점,064-739-4777,https://api.cdn.visitjeju.net/photomng/imgpath/201910/16/76348757-2736-4d9b-91b5-5cc03006204f.jpg,https://api.cdn.visitjeju.net/photomng/thumbnailpath/201910/16/df026c32-66ce-4af7-89b2-c5b56ec202a2.jpg,27830.0,23,"음식,라면,오겹살,흑돼지",13
1865,CONT_000000000501439,흑돼지구이집 하영,제주특별자치도 서귀포시 천제연로 101,"['흑돼지', '양념갈비', '전복어', '한식', '음식', '향토음식', '전복', '전복돌솥밥', '전복뚝배기']",야외 테라스가 있는 흑돼지 구이 전문점,33.255093,126.41663,음식점,064-738-6011,https://api.cdn.visitjeju.net/photomng/imgpath/202111/03/e5e0b516-07ce-48a0-963d-9313a806119f.jpg,https://api.cdn.visitjeju.net/photomng/thumbnailpath/202111/03/cdbcab61-2dd7-4632-8b26-bed91a044150.jpg,27352.0,38,"향토음식,음식,전복뚝배기,전복,양념갈비,한식,흑돼지",28
3173,CNTS_000000000018373,앤트러사이트,제주특별자치도 제주시 한림읍 한림로 564,"['카페', '커피', '아메리카노', '음식', '디저트', '빵', '쿠키', '과일주스']",고구마 전분 공장이 카페로 새롭게 태어난 곳,33.407646,126.25817,음식점,064-796-7991,https://api.cdn.visitjeju.net/photomng/imgpath/201811/06/b87b4637-7781-44b1-9fc0-3fa618c62673.jpg,https://api.cdn.visitjeju.net/photomng/thumbnailpath/201811/06/9e78b8d9-956a-4646-9806-4d6b947cae26.jpg,26549.0,28,"아메리카노,디저트,카페,커피,음식,빵,과일주스",25
3002,CNTS_000000000020478,붉은제주,제주특별자치도 제주시 애월읍 애월로 37,"['삼합', '전복', '두루치기', '음식', '고등어구이', '고등어']",싱싱한 해산물과 흑돼지가 어우러진 요리,33.462128,126.31228,음식점,064-744-9123,https://api.cdn.visitjeju.net/photomng/imgpath/201804/30/54c7151b-a7a1-458a-b30c-8563fc62f3a4.jpg,https://api.cdn.visitjeju.net/photomng/thumbnailpath/201804/30/b322128c-7e07-4b51-89be-bfd9a2371646.jpg,26510.0,23,"두루치기,고등어,음식,전복,고등어구이",20
4069,CNTS_000000000018364,요리하는 목수,제주특별자치도 제주시 애월읍 애월해안로 664,"['수제버거', '햄버거', '돈가스', '해물짬뽕', '음식']",30cm 높이의 19단 수제 햄버거와 해물짬뽕을 함께 즐길 수 있는 곳,33.480564,126.37354,음식점,070-8900-2155,https://api.cdn.visitjeju.net/photomng/imgpath/201804/30/8ec85c58-7868-4268-9363-3b8923befb49.jpg,https://api.cdn.visitjeju.net/photomng/thumbnailpath/201804/30/c8d923f0-5584-4b3e-a443-293067260fb3.jpg,26477.0,20,음식,2
1335,CNTS_000000000020019,수우동,제주특별자치도 제주시 한림읍 협재1길 11,"['돈까스', '우동', '일식', '음식', '돈가스', '감자고로케', '김치우동']","아름다운 협재 바다가 보이는 우동, 돈까스 전문점",33.396576,126.242516,음식점,064-796-5830,https://api.cdn.visitjeju.net/photomng/imgpath/201804/30/94126a85-a542-4900-a42d-5af282633cd7.jpg,https://api.cdn.visitjeju.net/photomng/thumbnailpath/201804/30/e3cb8f3e-fbcf-45d8-8da5-8a5d414c526a.jpg,26436.0,27,"음식,돈까스,일식",9
1458,CNTS_000000000020853,맛나식당,제주특별자치도 서귀포시 성산읍 동류암로 43,"['한식', '갈치조림', '고등어조림', '음식', '갈치', '제주갈치조림', '고등어', '고등어구이', '막걸리']",갈치조림이 유명한 성산일출봉 근처 맛집,33.44859,126.91591,음식점,064-782-4771,https://api.cdn.visitjeju.net/photomng/imgpath/201804/30/8231d26f-9054-4514-93d3-bf322c5075f0.jpg,https://api.cdn.visitjeju.net/photomng/thumbnailpath/201804/30/f516b4ef-5682-4314-9412-c8b31b70840f.jpg,25875.0,40,"고등어,갈치,고등어조림,음식,갈치조림,한식,고등어구이",29
1047,CNTS_000000000020145,해월정,제주특별자치도 제주시 구좌읍 해맞이해안로 2340,"['보말칼국수', '성게물회', '보말죽', '향토음식', '음식', '문어숙회', '해산물', '물회', '전복물회', '칼국수']",종달리 바다내음과 고소한 보말의 완벽한 조화를 맛보다,33.4880673,126.8804954,음식점,064-782-5664,https://api.cdn.visitjeju.net/photomng/imgpath/201910/07/7cff82d3-6138-4252-9ed0-c06a591f0e12.jpg,https://api.cdn.visitjeju.net/photomng/thumbnailpath/201910/07/898f2831-dcc9-45e8-8efe-b72f4960e583.jpg,25716.0,43,"향토음식,해산물,전복물회,물회,칼국수,보말칼국수,음식",29
1139,CNTS_000000000020444,제주미향,제주특별자치도 서귀포시 천제연로 99,"['통갈치구이', '회', '조림', '횟집', '한식', '음식', '갈치', '갈치구이', '갈치조림', '제주갈치조림', '제주갈치구이', '갈치국', '갈치회']",중문관광단지에 위치한 해산물 요리 전문점,33.255074,126.416466,음식점,064-738-8588,https://api.cdn.visitjeju.net/photomng/imgpath/202111/02/0523a22d-660d-492f-b7a4-f60d6d21a889.jpg,https://api.cdn.visitjeju.net/photomng/thumbnailpath/202111/02/74d646b1-4864-4d3f-8c39-b7eada5321ff.jpg,24654.0,54,"갈치구이,갈치,회,음식,갈치조림,횟집,한식,제주갈치구이",30
1162,CONT_000000000501267,산방식당(모슬포본점),제주특별자치도 서귀포시 대정읍 하모이삼로 62,"['밀냉면', '비빔밀냉면', '수육', '한식', '향토음식', '음식', '냉면']","제주식 밀면과 수육 모두 맛있기로 소문난 곳, 2016 KOREAT JEJU TOP10 선정",33.223396,126.2543,음식점,064-794-2165,https://api.cdn.visitjeju.net/photomng/imgpath/201804/30/fc815b26-483b-402f-aa45-a57616eceaa7.gif,https://api.cdn.visitjeju.net/photomng/thumbnailpath/201804/30/bd53846e-c045-4e8c-951c-06af681911a8.gif,24474.0,26,"향토음식,음식,한식,냉면",13
416,CONT_000000000501323,오라숲소리,제주특별자치도 제주시 오라로 80,"['매화한정식', '흑돼지떡갈비', '한식', '음식', '흑돼지', '숲', '샤브샤브', '정식']",제주향토음식과 본토음식을 접목시킨 한정식으로 유명한 공항근처맛집,33.4955139,126.5117837,음식점,064-744-2545,https://api.cdn.visitjeju.net/photomng/imgpath/202111/02/6d753ec9-8fcd-4560-acc2-f92e02b13ee6.jpg,https://api.cdn.visitjeju.net/photomng/thumbnailpath/202111/02/5aae164c-1e72-4e77-9b04-018ebfbe109e.jpg,24175.0,32,"한식,음식,정식,흑돼지",12
2996,CNTS_000000000018630,섬소나이,제주특별자치도 제주시 우도면 우도해안길 814,"['짬뽕', '피자', '땅콩아이스크림', '음식', '해물짬뽕', '크림파스타', '아이스크림']","하고수동해수욕장 정류장 바로 앞에 위치, 대표메뉴는 짬뽕과 피자.",33.5131507,126.9579066,음식점,064-784-2918,https://api.cdn.visitjeju.net/photomng/imgpath/202111/11/7a8f197f-e23b-43f9-b3e7-ecbcdc74cb8c.jpg,https://api.cdn.visitjeju.net/photomng/thumbnailpath/202111/11/7d28076c-fabb-43a5-85f5-a2952f3ac810.jpg,23620.0,33,"짬뽕,피자,크림파스타,음식,아이스크림",20
3096,CNTS_000000000022657,올레7돈 (올레칠돈),제주특별자치도 서귀포시 월평하원로 20,"['흑돼지', '연탄구이', '김치찌개', '된장찌개', '음식', '흑돼지구이', '대패삼겹살', '삼겹살', '오겹살', '목살', '돼지구이']",흑생고기 연탄구이 전문점,33.2438514,126.4596356,음식점,064-739-5533,https://api.cdn.visitjeju.net/photomng/imgpath/202110/29/567c0d09-32be-4cab-8929-692033082b5f.jpg,https://api.cdn.visitjeju.net/photomng/thumbnailpath/202110/29/c8ba9ddd-20c0-49e5-8931-9a9f90e73f63.jpg,23229.0,49,"김치찌개,된장찌개,삼겹살,흑돼지구이,음식,오겹살,목살,돼지구이,흑돼지",38
1273,CNTS_000000000020133,성산회관,제주특별자치도 서귀포시 성산읍 성산중앙로 8,"['볶음밥', '파스타', '전복밥', '퓨전', '음식', '크림파스타', '오일파스타', '커피', '전복']",전복밥이 유명산 감성 맛집,33.460884,126.93156,음식점,064-783-8448,https://api.cdn.visitjeju.net/photomng/imgpath/201804/30/8cba28f6-b89f-4287-b403-dff2c8c12813.jpg,https://api.cdn.visitjeju.net/photomng/thumbnailpath/201804/30/daa65c7b-3a14-4594-9cbd-a6c866343250.jpg,23199.0,35,"볶음밥,음식,크림파스타,커피,전복,파스타",22
3503,CNTS_000000000021760,서귀포네거리식당,제주특별자치도 서귀포시 서문로29번길 20,"['갈치조림', '갈치국', '갈치구이', '음식', '갈치', '제주갈치조림', '제주갈치구이']",tvN 수요미식회 방영(137회. 2017.9.27. 갈치 맛집). 갈치국이 유명한 맛집,33.24852,126.559364,음식점,064-762-5513,https://api.cdn.visitjeju.net/photomng/imgpath/201811/01/2a62dd37-0257-4f8d-ad00-a47e436d7fba.jpg,https://api.cdn.visitjeju.net/photomng/thumbnailpath/201811/01/480583e7-c2b1-44e4-9d4d-9d8e30ce40ae.jpg,23105.0,33,"갈치구이,갈치,음식,갈치조림,제주갈치구이",22
2056,CNTS_000000000001111,옥돔식당 ,제주특별자치도 서귀포시 대정읍 신영로36번길 62,"['보말칼국수', '칼국수', '손칼국수', '음식']",제주향토음식인 보말칼국수만 파는 집. 2016 KOREAT JEJU TOP 10 선정,33.2199418,126.2490877,음식점,064-794-8833,https://api.cdn.visitjeju.net/photomng/imgpath/202111/10/d160fa9b-8501-4f63-9a04-50b09cd6d8f1.jpg,https://api.cdn.visitjeju.net/photomng/thumbnailpath/202111/10/2984a68e-ed72-4364-9928-60e5d247f3d1.jpg,22815.0,17,"보말칼국수,음식,칼국수",12
1455,CNTS_000000000020326,바보카페,제주특별자치도 제주시 구좌읍 해맞이해안로 1016,"['카페', '댕유차', '한라봉', '음식', '아메리카노', '카페라떼', '카페모카', '카푸치노', '카라멜마끼아또']","월정리 해변 앞, 돌담집을 개조해 만든 감성 인테리어 노키즈 카페",33.541573,126.83128,음식점,064-783-4847,https://api.cdn.visitjeju.net/photomng/imgpath/201804/30/7444f547-b3a5-4b82-b83b-b3ca75cec3d3.jpg,https://api.cdn.visitjeju.net/photomng/thumbnailpath/201804/30/4d6ec4bc-ed0d-4b7f-8d50-9d35d18b1ec7.jpg,22715.0,42,"아메리카노,카페모카,카푸치노,카페,음식,카페라떼",26
3532,CONT_000000000501189,낭뜰에쉼팡,제주특별자치도 제주시 조천읍 남조로 2343,"['낭뜰정식', '한식', '비빔밥', '음식', '들깨수제비', '우동', '고등어구이']","절물자연휴양림 인근에 위치한 낭뜰에쉼팡은 깔끔하고 정갈한 한상 차림의 한정식과 이외에 쌈채, 비빔밥, 수제비 등 맛과 영양을 생각한 한끼 식사로 좋은 장소이다.",33.4735321,126.6571882,음식점,064-784-9292,https://api.cdn.visitjeju.net/photomng/imgpath/201804/30/e93caa05-fe33-49b9-86d3-c180ea3075b6.jpg,https://api.cdn.visitjeju.net/photomng/thumbnailpath/201804/30/afaa5b6d-4194-45b2-9885-97d6ea7ea066.jpg,21553.0,29,"한식,음식,고등어구이",11
3064,CNTS_000000000020346,고불락,제주특별자치도 제주시 애월읍 고내로7길 45-12,"['제육볶음', '상추밥', '한식', '음식', '닭볶음탕', '김치찌개', '돼지김치찌개', '고등어조림']",제주도의 꼭꼭 숨은 맛집,33.46674,126.336655,음식점,064-799-0393,https://api.cdn.visitjeju.net/photomng/imgpath/202111/05/ae8a59d7-8997-4407-90e3-71c5aa226525.jpg,https://api.cdn.visitjeju.net/photomng/thumbnailpath/202111/05/8590747b-93e4-4829-bc05-7d6ee47fef4f.jpg,21450.0,37,"한식,김치찌개,음식,고등어조림",16
3394,CNTS_000000000000991,도두해녀의집,제주특별자치도 제주시 도두항길 16,"['해산물', '물회', '전복', '성게', '한치', '음식', '전복죽', '회덮밥', '한치물회', '전복물회', '소라물회']",도두항에 위치한 해산물 요리 전문점. 물회가 싸고 맛있다며 소문난 집이다.,33.5062012,126.4666854,음식점,064-743-4989,https://api.cdn.visitjeju.net/photomng/imgpath/202111/19/96574e5f-ced4-4a66-9a12-fefc90fadf7a.jpg,https://api.cdn.visitjeju.net/photomng/thumbnailpath/202111/19/11bbcfd2-d9b2-432b-b7c5-551d9c7b8f98.jpg,21424.0,41,"해산물,회덮밥,전복죽,전복물회,물회,음식,전복,한치,한치물회",33
1733,CONT_000000000501364,제주해물밥,제주특별자치도 제주시 월대3길 14-6,"['제주해물밥', '성게밥', '전복성게미역국', '용궁조림', '음식', '향토음식', '전복']",조미료 없는 건강한 맛으로 제주 바다의 온갖 해산물을 오롯이 옮겨놓은 듯한 인상적인 밥상,33.4947,126.43402,음식점,064-746-5755,https://api.cdn.visitjeju.net/photomng/imgpath/201911/07/d440903a-17ef-412e-82d6-7252a0c2f62a.jpg,https://api.cdn.visitjeju.net/photomng/thumbnailpath/201911/07/f28d41db-6822-4724-855b-29a2e76625fe.jpg,21263.0,33,"향토음식,음식,전복",10
1282,CNTS_000000000020207,국수바다 본점,제주특별자치도 서귀포시 일주서로 982,"['고기국수', '성게국밥', '회국수', '비빔국수', '음식', '돔베고기', '밀면', '왕만두']",제주산 오겹살을 넣은 고기국수와 해산물이 있는 성게국밥으로 원기 회복,33.258533,126.40609,음식점,064-739-9255,https://api.cdn.visitjeju.net/photomng/imgpath/201810/30/9d506fd3-8b27-449d-898b-a79447b9cec8.jpg,https://api.cdn.visitjeju.net/photomng/thumbnailpath/201810/30/36d44105-7cbe-43ee-988d-69fdf193384b.jpg,20874.0,33,"음식,돔베고기,고기국수",12
1031,CNTS_000000000000785,이어도식당,제주특별자치도 서귀포시 표선면 성읍정의현로22번길 10-1,"['돼지불고기정식', '갈치조림', '옥돔정식', '성게국수', '한식', '음식']",제주 고사리 삼겹살을 제대로 느낄수 있는 식당,33.384068,126.80208,음식점,064-787-4333,https://api.cdn.visitjeju.net/photomng/imgpath/201907/15/700a9b67-2622-4ed7-8feb-811056625552.JPG,https://api.cdn.visitjeju.net/photomng/thumbnailpath/201907/15/b91dea82-042d-4695-89bc-f887c4105168.JPG,20731.0,28,"한식,음식,갈치조림",10
1048,CNTS_000000000001422,교래손칼국수,제주특별자치도 제주시 조천읍 비자림로 645,"['메밀야채전', '칼국수', '토종닭칼국수', '바지락칼국수', '음식', '보말칼국수', '닭칼국수', '닭개장칼국수']","직접 손으로 반죽하고 뽑는 생면, 진한 닭국물이 인상적인 닭칼국수로 유명한 집이다. 성산 고등학교 제주 버스 정류장 바로 앞에 위치하고 있다.",33.43613,126.67603,음식점,064-782-9870,https://api.cdn.visitjeju.net/photomng/imgpath/201810/30/c2b45fb3-994b-426c-8fd9-18caf89bb364.jpg,https://api.cdn.visitjeju.net/photomng/thumbnailpath/201810/30/bea606e9-6d10-406d-8121-3915ebcdf8a3.jpg,20543.0,44,"보말칼국수,음식,칼국수",12
1706,CNTS_000000000022057,명당양과,제주시 원노형로 83,"['빵집', '베이커리', '디저트', '쑥찐빵', '우유식빵', '음식', '빵', '밤식빵', '수제마카롱', '생크림케익']",옛날 스타일의 빵집이지만 모든 재료를 직접 만들어 신선한 빵을 맛볼 수 있는 1980년부터 시작한 제주 토종브랜드로 2대째 대를 이어 운영,33.481274,126.48501,음식점,064-746-1848,https://api.cdn.visitjeju.net/photomng/imgpath/201804/30/57a384d9-1c42-4696-897a-a08ee8c2dadc.jpg,https://api.cdn.visitjeju.net/photomng/thumbnailpath/201804/30/4468392f-7e62-4ab1-a26b-a417d7959aa8.jpg,20411.0,41,"빵,베이커리,음식,디저트",13
3766,CNTS_200000000007602,스카이 온 파이브 다이닝 ,제주특별자치도 서귀포시 안덕면 신화역사로304번길 38 메리어트관 제주신화월드 호텔앤리조트 5층,"['스카이온파이브그릴', '스테이크', '와인', '레스토랑', '음식', '뷔페']",제주의 아름다움이 스카이뷰와 함께 펼쳐지는 메리어트 다이닝,33.3017501,126.3206458,음식점,064-908-1200,https://api.cdn.visitjeju.net/photomng/imgpath/202012/30/dbde9f49-9938-498f-91b2-9aa4f4faabb6.JPG,https://api.cdn.visitjeju.net/photomng/thumbnailpath/202012/30/f55a602f-5608-4f46-85e5-9fa5c4282eac.JPG,20335.0,28,"스테이크,음식",7
3938,CNTS_000000000020810,모리노아루요,제주특별자치도 제주시 애월읍 하소로 769-58,"['덮밥전문점', '마스터셰프코리아 우승', '메로구이덮밥', '해산물덮밥', '일식', '음식', '장어덮밥', '덮밥', '치킨가라아게']",<마스터셰프코리아> 첫 시즌 우승자인 김승민 셰프가 깊은 숲 속에 오픈한 덮밥전문 일식집. 2016 KOREAT JEJU TOP10 선정,33.4193673,126.4015222,음식점,064-799-4253,https://api.cdn.visitjeju.net/photomng/imgpath/201804/30/43de44a9-b475-474e-89d3-52e4bf62d84e.jpg,https://api.cdn.visitjeju.net/photomng/thumbnailpath/201804/30/31369cfb-b76f-4f6e-873a-f44f8bda62ba.jpg,20254.0,51,"음식,일식",5
4040,CNTS_000000000019324,젠하이드어웨이,제주특별자치도 서귀포시 안덕면 사계남로 186-8,"['차롱박스', '까수엘라', '팟타이', '디저트', '케이크', '음식', '파스타', '샐러드', '치킨샐러드', '감자튀김', '스테이크']",통창 너머 바다가 보이는 곳에서 제주의 식재료를 사용한 이탈리아요리와 태국 요리를 맛볼 수 있는 레스토랑.,33.229233,126.30862,음식점,064-794-0133,https://api.cdn.visitjeju.net/photomng/imgpath/202111/05/4542992b-1bcf-4844-ad37-ff6ee16e20e4.JPG,https://api.cdn.visitjeju.net/photomng/thumbnailpath/202111/05/1efead62-b74d-4c7d-9b70-2cab322183c1.JPG,19682.0,48,"케이크,디저트,음식,스테이크,파스타,샐러드",23
1066,CNTS_000000000019511,성읍칠십리식당,제주특별자치도 서귀포시 표선면 성읍정의현로 74,"['삼겹살', '초벌구이', '흑돼지', '음식', '흑돼지구이', '오겹살', '옥돔', '옥돔구이', '비빔밥']",감귤나무로 초벌구이와 훈연하는 제주도 삼겹살 식당,33.389263,126.80127,음식점,064-787-0911,https://api.cdn.visitjeju.net/photomng/imgpath/202110/29/6294ed5c-ad16-4ae1-a624-f82e2cab00a1.JPG,https://api.cdn.visitjeju.net/photomng/thumbnailpath/202110/29/ea690a7c-806a-4dfb-ae64-89964f67a4ab.JPG,19485.0,37,"옥돔구이,흑돼지구이,음식,오겹살,삼겹살,흑돼지",25
3497,CNTS_000000000022260,생돈우리,제주특별자치도 제주시 우평로 38,"['흑돼지', '근고기', '목살', '음식', '흑돼지구이', '돼지구이', '오겹살', '대패삼겹살', '삼겹살']",초벌에 살짝 구운 흑돼지 근고기를 깔끔하게!,33.479877,126.461846,음식점,064-713-5525,https://api.cdn.visitjeju.net/photomng/imgpath/201804/30/bd60ffa9-8dd9-4f53-885c-47ea4d56d3db.jpg,https://api.cdn.visitjeju.net/photomng/thumbnailpath/201804/30/f704829c-de09-4459-bf17-edcf1f641705.jpg,19206.0,38,"흑돼지구이,돼지구이,음식,오겹살,목살,삼겹살,흑돼지",28
1380,CNTS_000000000020242,곰막,제주특별자치도 제주시 구좌읍 구좌해안로 64,"['회국수', '성게국수', '회비빔밥', '음식', '고등어회', '회덮밥', '전복', '전복죽', '물회']",에메랄드빛 바다와 서우봉이 유명한 함덕서우봉해수욕장에서 조금 더 동쪽으로 달리면 나타나는 작은 마을 동복리. 그곳에 회국수가 맛있는 곰막을 만날 수 있다. ‘곰막’은 동복리의 옛 지명으로 행정구역 경계에 있는 작은 마을이라는 뜻을 가지고 있다.,33.5569661,126.720736,음식점,064-727-5111,https://api.cdn.visitjeju.net/photomng/imgpath/202111/05/da949dc1-014b-480b-943d-2e5f79025e98.jpg,https://api.cdn.visitjeju.net/photomng/thumbnailpath/202111/05/cbda878c-bba2-49cc-86cd-1314e07ac525.jpg,18945.0,35,"회덮밥,전복죽,물회,음식,전복,고등어회",21
1411,CNTS_000000000018305,앞뱅디식당,제주특별자치도 제주시 선덕로 32,"['각재기국', '멜국', '고등어구이', '한식', '향토음식', '음식']","각재기국, 멜국 등 제주의 다양한 향토 음식을 제대로 맛볼 수 있는 곳이다.",33.4853213,126.4999909,음식점,064-744-7942,https://api.cdn.visitjeju.net/photomng/imgpath/201804/30/fe39ebbf-cd99-4761-8146-c0400b767153.jpg,https://api.cdn.visitjeju.net/photomng/thumbnailpath/201804/30/e595a0e6-ec44-41c0-b4ba-66429020e7cf.jpg,18944.0,24,"향토음식,음식,한식,고등어구이",16
4127,CNTS_000000000020808,덕성원,제주특별자치도 서귀포시 태평로401번길 4,"['꽃게짬뽕', '꽃게볶음', '탕수육', '중식', '음식', '볶음밥']","100년의 역사를 자랑하는 제주도의 대표 화교 중식당, 2016 KOREAT TOP10 선정",33.2449505,126.5635161,음식점,064-762-2402,https://api.cdn.visitjeju.net/photomng/imgpath/202111/30/d64461f1-712f-4b82-b6b5-f5a3c7c90324.jpg,https://api.cdn.visitjeju.net/photomng/thumbnailpath/202111/30/ecb91abe-2b40-435f-83d7-b99762404116.jpg,18562.0,23,"중식,음식,볶음밥,탕수육",13
3543,CNTS_000000000020250,중문어촌계해녀의집,제주특별자치도 서귀포시 중문관광로 194,"['전복죽', '해산물', '문어', '전복', '소라', '음식', '회']",자연산 해산물 요리,33.24265,126.41892,음식점,064-738-9557,https://api.cdn.visitjeju.net/photomng/imgpath/202112/07/9fb7f6ed-44f0-4886-9d54-bd6e72413995.JPG,https://api.cdn.visitjeju.net/photomng/thumbnailpath/202112/07/458b8b95-8eaf-48fd-af18-ca10f6e35c6d.JPG,18149.0,21,"해산물,전복죽,회,음식,전복",15
2493,CNTS_000000000020117,만선식당,제주특별자치도 서귀포시 대정읍 하모항구로 44,"['횟집', '고등어회', '고등어조림', '한치회', '음식', '한치']",모슬포에 위치한 만선식당은 싱싱한 고등어회를 필두로 고등어 조림과 갈치조림을 맛 볼 수 있는 곳이다. 여기에 추가하여 제주의 별미인 돼지산적을 추가할 수 있으며 고등어 구이도 주문 가능하다.,33.499622,126.53119,음식점,064-794-6300,https://api.cdn.visitjeju.net/photomng/imgpath/202201/07/0ab99279-d328-4f8f-99d3-47d9b559e196.jpg,https://api.cdn.visitjeju.net/photomng/thumbnailpath/202201/07/aee7c5bf-f8af-4495-b579-a0ec453c38b2.jpg,18049.0,23,"고등어조림,음식,횟집,한치,고등어회",19
1520,CNTS_000000000022905,하효살롱,제주특별자치도 서귀포시 효돈순환로 217-8,"['가정식', '한식', '몸국', '옥돔구이', '음식']",엄마가 지어준 제주집밥을 콘셉트로 마을 부녀회원들이 운영하는 밥집.,33.256496,126.621994,음식점,064-733-8181,https://api.cdn.visitjeju.net/photomng/imgpath/201804/30/81c148ad-d2a1-488e-a223-3ab6ed601be5.jpg,https://api.cdn.visitjeju.net/photomng/thumbnailpath/201804/30/8adbe482-9cab-4a5a-a7a1-c0e4146db62e.jpg,18014.0,17,"한식,음식,몸국,옥돔구이",13
435,CONT_000000000501156,가시식당,제주특별자치도 서귀포시 표선면 가시로 565번길 24,"['고기국수', '수육', '순대', '두루치기', '몸국', '향토음식', '한식', '음식', '돔베고기']",한라산 중산간 가시리에서 40년 동안 자리를 지켜온 순댓국 전문점이다. 순댓국과 두루치기가 단연 인기메뉴이다. 2016 KOREAT JEJU TOP10 선정,33.353035,126.77152,음식점,064-787-1035,https://api.cdn.visitjeju.net/photomng/imgpath/201804/30/88b2b245-b326-43e8-8226-09c39aa56f20.gif,https://api.cdn.visitjeju.net/photomng/thumbnailpath/201804/30/8fd8c622-5182-4855-afb5-86828711fd7a.gif,17756.0,34,"향토음식,두루치기,몸국,음식,돔베고기,고기국수,한식",28
2994,CNTS_000000000001121,부두식당 (모슬포),제주특별자치도 서귀포시 대정읍 하모항구로 62,"['조림', '갈치조림', '우럭조림', '쥐치조림', '방어', '음식', '방어회', '제주갈치조림', '고등어회', '고등어구이']","겨울 바다의 왕, 방어 요리가 일품인 부두식당",33.218906,126.25106,음식점,064-794-1223,https://api.cdn.visitjeju.net/photomng/imgpath/202111/09/dfe8ad02-0b87-409d-9173-c61a0a6a9ac2.JPG,https://api.cdn.visitjeju.net/photomng/thumbnailpath/202111/09/27c17d51-7b2e-451c-86c4-def05c878a1a.JPG,17691.0,45,"고등어구이,음식,고등어회,갈치조림",18
1348,CNTS_000000000018378,북촌에가면,제주특별자치도 제주시 조천읍 북촌5길 6,"['카페', '커피', '디저트', '정원', '음식', '청귤차', '카페라떼', '아메리카노', '녹차라떼', '아포가토']",핑크뮬리와 예쁜 꽃들로 가득한 북촌리의 조용한 카페,33.547928,126.69252,음식점,064-752-1507,https://api.cdn.visitjeju.net/photomng/imgpath/201810/22/ddf472c8-3e25-4d13-ab4f-74451e7e6b36.JPG,https://api.cdn.visitjeju.net/photomng/thumbnailpath/201810/22/37555178-1e70-4a6b-8648-2ff354c6934a.JPG,17589.0,40,"아메리카노,디저트,카페,커피,음식,카페라떼,녹차라떼",28
2105,CONT_000000000501149,삼다도횟집,제주특별자치도 제주시 서해안로 572,"['광어회', '참돔', '고등어회', '한식', '횟집', '갈치조림', '고등어조림', '갈치회', '고등어구이', '갈치구이', '초밥', '해산물', '방어', '방어회', '회', '안전여행스탬프']",회는 물론 맛깔 나는 간장게장과 전복 내장 볶음밥이 유명한 집,33.5190034,126.4993699,음식점,064-711-7085,https://api.cdn.visitjeju.net/photomng/imgpath/202205/30/5f1f3ac2-7d2f-4486-8e3b-18bce6e9c13a.jpg,https://api.cdn.visitjeju.net/photomng/thumbnailpath/202205/30/600944df-467c-4d9e-852a-9f6259d44a94.jpg,17299.0,67,"초밥,갈치구이,해산물,고등어조림,회,갈치조림,횟집,한식,고등어회,고등어구이",41
1788,CNTS_000000000020119,사계바다,제주특별자치도 서귀포시 안덕면 형제해안로 26,"['갈치', '전복', '오징어', '횟집', '음식', '갈치구이', '갈치조림', '제주갈치조림', '제주갈치구이', '전복죽', '옥돔구이', '회']",이름에 걸맞게 사계바다가 눈앞에 펼쳐진 은갈치 전문점,33.227848,126.30391,음식점,064-794-5501,https://api.cdn.visitjeju.net/photomng/imgpath/201804/30/7cfd3fad-a8df-4490-a469-bb99a69e33e4.jpg,https://api.cdn.visitjeju.net/photomng/thumbnailpath/201804/30/43835a4a-3c0a-4dca-b314-4ddb57956698.jpg,17131.0,50,"갈치구이,옥돔구이,전복죽,갈치,회,음식,전복,갈치조림,횟집,제주갈치구이",39
1952,CNTS_000000000001040,중문덤장,제주특별자치도 서귀포시 천제연로 17,"['돔베고기', '향토음식', '갈치조림', '고등어구이', '보말국', '우수관광사업체', '음식']","갈치조림, 고등어구이, 보말국, 돔베고기를 한 번에 맛볼 수 있는 '덤장상차림'",33.257664,126.40828,음식점,064-738-2550,https://api.cdn.visitjeju.net/photomng/imgpath/201804/30/9684523b-d287-4842-8552-c36964da0909.gif,https://api.cdn.visitjeju.net/photomng/thumbnailpath/201804/30/3b0a47fe-d9bc-4b90-9370-e3783e371c87.gif,17130.0,35,"향토음식,음식,돔베고기,갈치조림,고등어구이",23
2057,CNTS_000000000020027,카페콜라,제주특별자치도 제주시 한림읍 일주서로 5857,"['콜라', '체리콕', '고르곤졸라피자', '커피콕', '음식', '커피', '아메리카노', '카푸치노', '카페라떼', '카페모카']","코카콜라를 주제로 한 수집품 전시&테마 카페 - 커피콕, 체리콕이 대표메뉴",33.443314,126.29197,음식점,0507-1408-9969,https://api.cdn.visitjeju.net/photomng/imgpath/201804/30/cac0d3e4-d417-4b95-9e79-14b218786957.jpg,https://api.cdn.visitjeju.net/photomng/thumbnailpath/201804/30/022fc229-cced-4818-bdba-086a5d168609.jpg,16730.0,45,"아메리카노,카페모카,카푸치노,음식,커피,카페라떼",26
1022,CONT_000000000501250,바다의집,제주특별자치도 서귀포시 성산읍 해맞이해안로 2758,"['성게비빔밥', '성게미역국', '전복회덮밥', '한식', '향토음식', '음식', '전복']",오조리해안도로에 위치한 한식당,33.469486,126.919266,음식점,064-784-8882,https://api.cdn.visitjeju.net/photomng/imgpath/201804/30/a855a576-70ee-4b33-8748-8ac9e8f03529.jpg,https://api.cdn.visitjeju.net/photomng/thumbnailpath/201804/30/4a313c51-3491-4393-be9c-467ec0dd7ff5.jpg,16717.0,31,"향토음식,음식,전복,성게미역국,한식",19
3818,CNTS_000000000020297,치치퐁,제주특별자치도 서귀포시 안덕면 사계남로216번길 24-62,"['아이스크림', '토끼아이스크림', '카페', '음식', '디저트']",제주 산방산 근처에서 즐기는 귀엽고 핫한 토끼 모양의 아이스크림 디저트,33.235268,126.313446,음식점,010-9536-1322,https://api.cdn.visitjeju.net/photomng/imgpath/202111/01/6cf25f59-00f5-46cc-bd06-9e0e7e9ef3f6.jpg,https://api.cdn.visitjeju.net/photomng/thumbnailpath/202111/01/776aa763-9061-4751-9f30-9f263f2f68e8.jpg,16714.0,23,"카페,아이스크림,음식,디저트",15
2512,CNTS_000000000001043,흑돈가,제주특별자치도 제주시 한라대학로 11,"['근고기', '흑돼지', '멜젓', '숯불구이', '음식', '우수관광사업체']","제주시내에 위치한 흑돼지 전문 음식점, 2016 KOREAT JEJU TOP 10 선정",33.48003,126.473595,음식점,064-747-0088,https://api.cdn.visitjeju.net/photomng/imgpath/202111/03/dce3e690-9172-413b-bca5-5cc87d5138a8.jpg,https://api.cdn.visitjeju.net/photomng/thumbnailpath/202111/03/6acd2079-230c-4b74-8206-894cead1cedd.jpg,16604.0,26,"음식,흑돼지",6
2763,CNTS_000000000018471,양가형제,제주특별자치도 제주시 한경면 청수동8길 3,"['버거', '수제버거', '맥주', '음료', '음식', '햄버거', '치즈버거', '감자튀김', '어니언링']",방치된 마을회관을 리모델링한 수제버거집,33.307373,126.2541,음식점,010-9338-7734,https://api.cdn.visitjeju.net/photomng/imgpath/201804/30/8ca66ef9-524d-4f19-9315-9db4f71081ff.jpg,https://api.cdn.visitjeju.net/photomng/thumbnailpath/201804/30/5c3cd90f-ed82-456c-a84e-e4a8bc87d211.jpg,16450.0,35,"음식,음료",5
1800,CNTS_000000000020423,경미네집(경미휴게소),제주특별자치도 서귀포시 성산읍 일출로 259,"['해물라면', '전복밥', '성게밥', '한식', '음식', '전복죽', '라면']",성산일출봉 초입에 있는 조그마한 한식당,33.46125,126.93347,음식점,064-782-2671,https://api.cdn.visitjeju.net/photomng/imgpath/201804/30/38df09bd-a376-40a9-926b-a359bf6e2652.jpg,https://api.cdn.visitjeju.net/photomng/thumbnailpath/201804/30/0076fc6a-2db6-4baf-b5b6-a42131a17a6e.jpg,16282.0,25,"라면,전복죽,해물라면,음식,한식",17
3773,CNTS_000000000021268,잠녀해녀촌,제주특별자치도 제주시 조천읍 조함해안로 410,"['소라구이', '전복구이', '해산물', '성게보말죽', '물회', '음식', '회', '갈치회', '고등어회', '한치물회', '한치회', '전복물회', '갈치구이', '제주갈치구이', '고등어구이', '생선조림', '갈치조림', '제주갈치조림', '한치']",함덕 해녀들이 운영하는 식당,33.546566,126.65964,음식점,064-782-6769,https://api.cdn.visitjeju.net/photomng/imgpath/201811/06/82314e5c-4fa8-4f68-b32c-40f99a5236d7.jpg,https://api.cdn.visitjeju.net/photomng/thumbnailpath/201811/06/cb2badb1-7bbf-4d35-8988-c4e210d3ab76.jpg,15934.0,88,"갈치구이,해산물,고등어구이,물회,전복물회,회,음식,생선조림,한치,갈치조림,제주갈치구이,고등어회,한치물회",57
1478,CNTS_000000000021265,평대성게국수,제주특별자치도 제주시 구좌읍 해맞이해안로 1172,"['성게국수', '소라비빔국수', '문어숙회', '향토음식', '음식', '물회', '회', '갈치회', '고등어회', '한치물회', '한치회', '전복물회', '갈치구이', '제주갈치구이', '고등어구이', '생선조림', '갈치조림', '제주갈치조림', '한치']",바다 내음을 가득 품은 국수 한 그릇,33.534233,126.83995,음식점,064-783-2466,https://api.cdn.visitjeju.net/photomng/imgpath/202111/18/6db04379-10dc-4e10-8115-b70c359f5c6e.jpg,https://api.cdn.visitjeju.net/photomng/thumbnailpath/202111/18/4e9f4a31-2cc8-4dcf-b487-e3acb9e75bc7.jpg,15920.0,90,"향토음식,갈치구이,고등어구이,물회,전복물회,회,음식,생선조림,한치,갈치조림,제주갈치구이,고등어회,한치물회",58
1364,CNTS_000000000020379,기억나는집,제주특별자치도 서귀포시 중앙로 6,"['해물탕', '전복', '갈치조림', '음식', '전복해물탕', '제주갈치조림', '옥돔구이', '고등어구이']",한 번 맛보면 계속 기억나는 집,33.245117,126.56229,음식점,064-733-8500,https://api.cdn.visitjeju.net/photomng/imgpath/201909/23/a6f12b6f-2be4-4641-8b0b-c0de725a143a.jpg,https://api.cdn.visitjeju.net/photomng/thumbnailpath/201909/23/5abbc7c1-bcbf-4639-8cc3-60eee56d73bd.jpg,15896.0,38,"옥돔구이,음식,전복,갈치조림,고등어구이,해물탕",25
3584,CNTS_000000000020819,사형제횟집,제주특별자치도 제주시 한림읍 한림상로 273,"['딱새우', '고등어회', '횟집', '음식', '회', '광어회']",푸짐한 곁들이찬에 놀라는 횟집,33.422413,126.266396,음식점,064-796-8709,https://api.cdn.visitjeju.net/photomng/imgpath/202110/26/5aa15aa5-fffc-4058-a5ad-f16346a17e03.jpg,https://api.cdn.visitjeju.net/photomng/thumbnailpath/202110/26/96c48925-72d5-4d1e-80b4-a7728a1d08e7.jpg,15872.0,20,"횟집,음식,고등어회,회",12
3730,CNTS_000000000020285,전원일기,제주특별자치도 서귀포시 일주동로 8713,"['돔베고기', '정식', '향토음식', '한식', '음식', '고등어구이', '옥돔구이']",돔베고기를 전문적으로 하는 흑돼지 전문점,33.2523783,126.5576332,음식점,064-762-5630,https://api.cdn.visitjeju.net/photomng/imgpath/201804/30/5721c87a-3925-4ecb-9152-305be9631c43.jpg,https://api.cdn.visitjeju.net/photomng/thumbnailpath/201804/30/cd6450af-edc0-4153-87f3-702d61c1e974.jpg,15749.0,29,"향토음식,옥돔구이,정식,음식,돔베고기,한식,고등어구이",29
3254,CNTS_000000000001036,쌍둥이횟집본점,제주특별자치도 서귀포시 중정로62번길 14,"['회', '횟집', '초밥', '스시', '생선구이', '음식', '해산물', '생선구이정식']",저렴하고 푸짐하고 맛있는 횟집,33.24659,126.562996,음식점,064-762-0478,https://api.cdn.visitjeju.net/photomng/imgpath/201804/30/3f1cb032-5bcb-4e86-b0ce-325aa2e5729e.gif,https://api.cdn.visitjeju.net/photomng/thumbnailpath/201804/30/ea3e2e7e-5898-4bf0-82fc-d109dd092171.gif,15710.0,29,"초밥,해산물,생선구이정식,회,음식,횟집",21
3796,CONT_000000000501252,바다풍경횟집,제주특별자치도 제주시 서해안로 654,"['횟집', '활어회', '소라', '문어', '갈치', '갈치구이', '갈치조림', '갈치회', '회', '해산물', '간장게장', '해물뚝배기', '문어숙회', '고등어회']",용두암과 용연구름다리 근방 횟집,33.5161862,126.5069194,음식점,064-743-7779,https://api.cdn.visitjeju.net/photomng/imgpath/201909/23/b31c586f-7d2a-4052-b730-fa6e8bc25ba5.jpg,https://api.cdn.visitjeju.net/photomng/thumbnailpath/201909/23/a513475b-2861-48df-8828-15ea0045dc2a.jpg,15668.0,56,"갈치구이,해물뚝배기,해산물,갈치,회,갈치조림,횟집,고등어회",32
1357,CONT_000000000501207,독개물항,제주특별자치도 제주시 한림읍 한림로 478,"['오분자기', '해물뚝배기', '향토음식', '보말물회', '음식', '갈치조림', '제주갈치조림', '갈치구이', '제주갈치구이', '성게미역국', '전복죽', '보말죽', '전복뚝배기']",대표메뉴는 오분작 뚝배기와 해물탕,33.4018706,126.2516959,음식점,064-796-3966,https://api.cdn.visitjeju.net/photomng/imgpath/202010/21/8986cfdc-7465-4208-b6fa-3e231640d70d.JPG,https://api.cdn.visitjeju.net/photomng/thumbnailpath/202010/21/39077c3c-0e6e-4cdc-aabf-32bae286b210.JPG,15550.0,67,"향토음식,갈치구이,해물뚝배기,전복죽,음식,전복뚝배기,갈치조림,성게미역국,제주갈치구이",46
2445,CNTS_000000000020623,바다속고등어쌈밥,제주특별자치도 제주시 애월읍 일주서로 7089,"['갈치조림', '옥돔구이', '해물뚝배기', '한치물회', '쌈밥', '음식', '고등어', '전복뚝배기', '성게미역국', '성게국', '한치']",고등어조림과 묵은지를 쌈밥으로,33.484203,126.40683,음식점,064-745-6466,https://api.cdn.visitjeju.net/photomng/imgpath/202110/28/03496fd0-ea73-4b68-8c1e-a28da814a411.jpg,https://api.cdn.visitjeju.net/photomng/thumbnailpath/202110/28/fa1450db-2473-43da-be93-a69536724e5e.jpg,15398.0,49,"해물뚝배기,옥돔구이,고등어,음식,전복뚝배기,성게미역국,갈치조림,한치,한치물회",42
1418,CNTS_000000000020122,오가네전복설렁탕,제주특별자치도 서귀포시 중산간동로 7738,"['설렁탕', '물회냉면', '손만두', '음식', '전복', '전복해물탕', '전복죽', '전복뚝배기', '전복물회']",평범하지 않은 전복 설렁탕을 즐길 수 있는 음식점,33.26826,126.58964,음식점,064-738-9295,https://api.cdn.visitjeju.net/photomng/imgpath/201911/07/549a8964-b155-4a80-93af-d7c98161bd99.jpg,https://api.cdn.visitjeju.net/photomng/thumbnailpath/201911/07/140dbeda-9632-457c-bfd5-9ccb6de59bbc.jpg,15384.0,39,"전복죽,전복물회,음식,전복뚝배기,전복",20
1531,CNTS_000000000018317,쉬림프박스,제주시 구좌읍 평대리 2033-7,"['커플', '혼자', '새우', '음식', '새우버터구이', '츄러스']",하와이안 스타일의 새우 버터구이가 올라간 밥과 수제 츄러스,33.499622,126.53119,음식점,010-4824-0710,https://api.cdn.visitjeju.net/photomng/imgpath/201804/30/fd696818-6245-4c54-8156-c1aecf2f0fb3.jpg,https://api.cdn.visitjeju.net/photomng/thumbnailpath/201804/30/481913b2-88ac-4d3d-8cf5-7e8f8c1fb402.jpg,15305.0,22,"음식,커플",5
3629,CONT_000000000501173,그리운바다성산포,제주특별자치도 서귀포시 성산읍 성산등용로 94,"['고등어회', '은갈치회', '횟집', '회국수', '성게미역국', '갈치구이', '갈치조림', '고등어조림', '회덮밥', '전복해물뚝배기']",서귀포시 성산읍에 위치한 횟집인 그리운바다성산포는 제주산 싱싱한 생선과 해산물을 사용하여 다양한 한상차림을 대접하고 있다.,33.46976,126.93005,음식점,064-784-2128,https://api.cdn.visitjeju.net/photomng/imgpath/202203/11/87ddedd5-4791-480e-afa3-8a67ef228c7d.jpg,https://api.cdn.visitjeju.net/photomng/thumbnailpath/202203/11/0a2f7863-1e7c-477a-b0a5-a0e093bb7f93.jpg,15221.0,50,"갈치구이,회덮밥,고등어조림,성게미역국,갈치조림,횟집,고등어회",33
2113,CNTS_000000000019605,키친오즈,제주시 한림읍 협재로 208,"['카페', '파스타', '음료', '애견동반', '핑크뮬리', '음식', '피자', '크림파스타', '빵', '디저트', '아메리카노']",가을이면 핑크뮬리로 몽환적인 느낌이 나는 키친카페,33.38007,126.25113,음식점,064-796-7165,https://api.cdn.visitjeju.net/photomng/imgpath/201804/30/25159158-fdbe-4859-bde0-328dff15855a.jpg,https://api.cdn.visitjeju.net/photomng/thumbnailpath/201804/30/b19eda58-2466-48d9-aaa1-7a55bb6bf70c.jpg,15096.0,43,"아메리카노,디저트,음료,카페,음식,피자,크림파스타,빵,파스타",33
3345,CNTS_000000000020261,상춘재,제주특별자치도 제주시 조천읍 선진길 26,"['비빔밥', '멍게비빔밥', '꼬막비빔밥', '추어탕', '음식', '고등어구이', '쌈밥', '성게비빔밥']",제주에서 경험하는 청와대의 맛. 한식 전문 요리사가 만드는 저염식 비빔밥이 유명하다.,33.45866,126.70484,음식점,064-725-1557,https://api.cdn.visitjeju.net/photomng/imgpath/201804/30/b86c5992-fff5-4cf6-aba5-2e2b92599b73.gif,https://api.cdn.visitjeju.net/photomng/thumbnailpath/201804/30/5e010704-4d34-4028-8bb0-95aa286910c7.gif,14798.0,37,"고등어구이,음식",8
3182,CONT_000000000501269,산지물식당(건입동본점),제주특별자치도 제주시 임항로 26 (건입동),"['활어회', '횟집', '물회', '활한치물회', '음식', '향토음식', '회', '전복죽', '오분작뚝배기', '전복해물탕', '갈치국', '성게미역국', '한치']",오랜 시간 제주도민 및 관광객의 사랑을 받고 있는 회와 조림 및 각종 물회 전문점이다.,33.516262,126.52756,음식점,064-752-5599,https://api.cdn.visitjeju.net/photomng/imgpath/202111/15/70caea56-0354-4ac1-a215-8c79ff5135e7.jpg,https://api.cdn.visitjeju.net/photomng/thumbnailpath/202111/15/d07183e6-13b5-4fa7-b19b-67c682ca31e1.jpg,14742.0,55,"향토음식,전복죽,물회,회,음식,성게미역국,횟집,한치",28
1245,CONT_000000000501193,닐모리동동,제주특별자치도 제주시 서해안로 452,"['오징어튀김먹물파스타', '한라산빙수', '우도땅콩팬케이크', '지름떡팬케이크', '향토음식', '음식', '브런치', '스테이크', '케이크']",넥슨에서 운영하는 문화카페,33.517693,126.487625,음식점,064-745-5008,https://api.cdn.visitjeju.net/photomng/imgpath/202110/28/7e269e61-6f6d-49f4-ab17-842b8adcd49c.JPG,https://api.cdn.visitjeju.net/photomng/thumbnailpath/202110/28/b19e0d42-eb85-439f-b8dd-4760071da52d.JPG,14648.0,54,"케이크,향토음식,음식,스테이크,브런치",20
2313,CNTS_000000000022478,안거리밖거리,제주특별자치도 서귀포시 솔동산로 6-1,"['돔베고기', '옥돔구이', '한식', '향토음식', '음식', '정식', '비빔밥', '막걸리']",이중섭거리 인근의 제주 향토 정식집,33.244278,126.56415,음식점,064-763-2552,https://api.cdn.visitjeju.net/photomng/imgpath/201804/30/7802cd30-30d4-49fc-8424-6e4a5ebb11d2.jpg,https://api.cdn.visitjeju.net/photomng/thumbnailpath/201804/30/5504a79d-9e6d-4fc9-8809-aa82d50f1696.jpg,14620.0,31,"향토음식,옥돔구이,정식,음식,돔베고기,한식",23
3339,CNTS_200000000008010,명월국민학교,제주특별자치도 제주시 한림읍 명월로 48,"['갤러리', '카페', '커피', '음식', '차', '청귤차', '꽃차', '아메리카노', '바닐라라떼', '카페라떼', '녹차라떼']",폐교가 카페와 갤러리로 재탄생된 곳,33.388832,126.2649479,음식점, 070-8803-1955,https://api.cdn.visitjeju.net/photomng/imgpath/201812/17/518acb87-3bcf-44e7-b866-993976dd6efc.jpg,https://api.cdn.visitjeju.net/photomng/thumbnailpath/201812/17/2e7ed994-f8d2-495d-8ce6-75df66bd50af.jpg,14483.0,43,"아메리카노,바닐라라떼,카페,커피,음식,카페라떼,녹차라떼,차",32
1360,CNTS_000000000020185,신설오름,제주특별자치도 제주시 고마로17길 2,"['몸국', '돔베고기', '한치회', '한치물회', '음식', '고등어구이', '고기국수', '소라물회', '물회', '소라', '한치']",제주의 대표적인 향토음식 '몸국',33.50546,126.54163,음식점,064-758-0143,https://api.cdn.visitjeju.net/photomng/imgpath/201804/30/a0caf6ac-0d1f-40ed-9fcf-929ab9033731.jpg,https://api.cdn.visitjeju.net/photomng/thumbnailpath/201804/30/24569950-2c4a-46cc-80b4-6c72e2ad0dde.jpg,14393.0,44,"몸국,물회,음식,돔베고기,고기국수,한치,고등어구이,한치물회",32
1042,CNTS_000000000020474,복자씨연탄구이,제주특별자치도 서귀포시 성산읍 해맞이해안로 2764,"['근고기', '흑돼지', '김치찌개', '음식', '흑돼지구이']",우도와 지미봉을 바라보며 즐기는 진짜배기 흑돼지 구이,33.469234,126.91987,음식점,064-782-7330,https://api.cdn.visitjeju.net/photomng/imgpath/202110/28/f55ed850-f9fe-4548-9445-2f429611f533.jpg,https://api.cdn.visitjeju.net/photomng/thumbnailpath/202110/28/184ac12e-5abd-4f09-9a26-35421607b180.jpg,14277.0,21,"흑돼지구이,김치찌개,음식,흑돼지",17
3186,CNTS_200000000007210,제주맥주 양조장,제주특별자치도 제주시 한림읍 금능농공길 62-11,"['친구', '맑음', '사계절', '맥주', '양조장', '브루어리투어', '피자', '음식', '수제맥주']",제주도 하면 가장 먼저 떠오르는 로컬맥주인 제주맥주는 서귀포 한림에 양조장을 두고 있다. 제주 여행 중이라면 누구나 한 번쯤은 보았을 제주맥주는 제주의 특색을 담아 제작했다.,33.3598575,126.2460727,음식점,064-798-9872,https://api.cdn.visitjeju.net/photomng/imgpath/201807/10/2bd70ed0-9056-4736-8ad4-7899f2d4e95b.jpg,https://api.cdn.visitjeju.net/photomng/thumbnailpath/201807/10/6eee25f9-3b31-4410-a6a7-489dbd3bdbbb.jpg,14071.0,34,"친구,피자,음식",8
2065,CNTS_000000000020069,카페마니,제주특별자치도 제주시 구좌읍 해맞이해안로 1112,"['카페', '커피', '아메리카노', '음식', '에스프레소', '카페라떼', '차', '에이드', '과일주스']",빨간 소파에 누워 에메랄드빛 바다를 바라보며 커피한잔을 즐길 수 있는 테마로 유명한 카페,33.53737,126.83743,음식점,010-7129-7533,https://api.cdn.visitjeju.net/photomng/imgpath/202110/25/dc01f92d-8cb8-498b-823f-1ea943dd1afd.jpg,https://api.cdn.visitjeju.net/photomng/thumbnailpath/202110/25/15954296-546c-4bc4-818a-6537e29778ea.jpg,14023.0,36,"아메리카노,차,카페,커피,음식,카페라떼,에스프레소,과일주스,에이드",36
1090,CNTS_000000000020324,옛날옛적,제주특별자치도 서귀포시 성산읍 일주동로 4660,"['돔베고기', '해물뚝배기', '해산물', '음식', '회', '고등어조림', '간장게장']","성산읍 온평리에 위치한 돔베고기, 해물뚝배기, 각종 회 및 해산물요리  식당",33.414307,126.900185,음식점,064-784-2252,https://api.cdn.visitjeju.net/photomng/imgpath/202111/26/a683fca4-8359-446c-90fe-c6f88ade6fb8.jpg,https://api.cdn.visitjeju.net/photomng/thumbnailpath/202111/26/3b165272-8dc7-49c0-b208-04fda556a6ec.jpg,13654.0,30,"해물뚝배기,해산물,고등어조림,회,음식,돔베고기",25
2742,CNTS_000000000020492,늘봄흑돼지,제주특별자치도 제주시 한라대학로 12,"['흑돼지', '갈비따로덮밥', '한식', '음식', '목살', '삼겹살', '갈비', '양념갈비', '항정살']",제주도에서 가장 큰 흑돼지 구이 전문점,33.4792895,126.4728779,음식점,064-744-9001,https://api.cdn.visitjeju.net/photomng/imgpath/202111/12/54272bd0-c25f-4368-9cf3-892226b28c1b.jpg,https://api.cdn.visitjeju.net/photomng/thumbnailpath/202111/12/c4d6a9b2-3af2-449f-83d8-12dd046ed0d1.jpg,13599.0,35,"갈비,음식,한식,목살,양념갈비,삼겹살,흑돼지",24
964,CNTS_000000000020245,살롱드라방 SALON de LAVANT,제주특별자치도 제주시 애월읍 하가로 146-9,"['카페', '팬케이크', '브런치', '음식', '아메리카노', '에스프레소', '카페라떼', '케이크']",평일에 브런치를 즐기고 싶다면 살롱드라방,33.499622,126.53119,음식점,070-7797-3708,https://api.cdn.visitjeju.net/photomng/imgpath/201804/30/4497e8b9-a673-45ea-be4e-2cff775f9201.jpg,https://api.cdn.visitjeju.net/photomng/thumbnailpath/201804/30/d2b3de9d-dbdf-4583-9632-52406e8c70d8.jpg,13502.0,35,"케이크,아메리카노,카페,음식,카페라떼,브런치,에스프레소",30
3140,CNTS_000000000022828,제주올레냉면 제주노형점,제주특별자치도 제주시 광평동로 19,"['냉면', '비빔냉면', '물냉면', '음식', '물갈비', '갈비', '전복갈비탕', '갈비탕']",제주 해산물 12가지를 넣은 육수로 깔끔하고 깊은 해물 육수의 맛을 느낄 수 있는 곳,33.481808,126.47048,음식점,064-742-1239,https://api.cdn.visitjeju.net/photomng/imgpath/202109/15/14dc76c2-a9a9-4175-8d5e-cd78e8c98fc6.jpg,https://api.cdn.visitjeju.net/photomng/thumbnailpath/202109/15/fd06fe7e-eddf-4a7b-9fa4-07e30dc1445e.jpg,13456.0,31,"음식,냉면,갈비",8
3429,CNTS_000000000020064,블랑로쉐,제주특별자치도 제주시 우도면 우도해안길 783,"['카페', '크림라떼', '케이크', '음료', '음식', '아이스크림', '아메리카노', '우도']",우도 하고수동 해변이 보이는 전망 좋은 카페,33.515686,126.958084,음식점,064-782-9154,https://api.cdn.visitjeju.net/photomng/imgpath/201804/30/9607a7be-2bdb-40f1-a872-2d727b8fd65e.jpg,https://api.cdn.visitjeju.net/photomng/thumbnailpath/201804/30/a88cec73-f0e8-4499-ba5b-d8265be18932.jpg,13292.0,32,"케이크,아메리카노,음료,카페,음식,아이스크림",24
1152,CNTS_000000000018341,톰톰카레,제주특별자치도 제주시 구좌읍 해맞이해안로 1112,"['카레', '야채카레', '콩카레', '반반카레', '음식']",반반카레가 이색적인 구좌읍 평대리의 카레 맛집,33.53737,126.83743,음식점,070-7799-1535,https://api.cdn.visitjeju.net/photomng/imgpath/202110/27/b878d00b-76f7-4079-8f50-038c9b866280.JPG,https://api.cdn.visitjeju.net/photomng/thumbnailpath/202110/27/ebd1426b-baaf-4970-8074-a88448356363.JPG,13188.0,19,음식,2
174,CONT_000000000501265,산방산에 옛촌,제주특별자치도 서귀포시 안덕면 사계로 189,"['갈치조림', '전복물회', '모닥치기', '한식', '향토음식', '음식', '전복', '갈치']",산방산의 멋진 절경과 잘 어울리는 제주향토음식,33.24694,126.30275,음식점,064-794-6006,https://api.cdn.visitjeju.net/photomng/imgpath/201804/30/ec2c559d-8b8f-42fb-ac6f-9139d53c11ea.jpg,https://api.cdn.visitjeju.net/photomng/thumbnailpath/201804/30/a7df5722-9344-4aaa-ab9e-d17f0eb51778.jpg,13125.0,31,"향토음식,전복물회,갈치,음식,전복,갈치조림,한식",26
1776,CNTS_000000000020321,서광춘희,제주특별자치도 서귀포시 안덕면 화순서동로 367,"['꼬치커틀렛', '춘희면', '성게', '한식', '음식', '성게비빔밥', '새우튀김', '가츠동', '해물라면', '라면']",안덕면에 위치한 아날로그 분위기의 식당으로 성게라면이 유명한 곳,33.2833393,126.3316897,음식점,064-792-8911,https://api.cdn.visitjeju.net/photomng/imgpath/202110/28/dea43b5e-fe00-4959-a658-597a528ea60b.jpg,https://api.cdn.visitjeju.net/photomng/thumbnailpath/202110/28/9b79545d-703c-4ddf-84ac-e0a7d756efa5.jpg,12960.0,41,"한식,음식,라면,해물라면",13
1758,CNTS_000000000001474,문동일셰프녹차고을,제주특별자치도 제주시 애월읍 하귀동남4길 13-1,"['칼국수', '전복구이', '고사리육개장', '흑돼지안심', '떡갈비', '한식대첩', '우수관광사업체', '음식', '안전여행스탬프']","한식대첩3(OLIVE, tvN) 출신 제주 대표 문동일 셰프가 운영하는 퓨전 맛집이다. 제주도에서 나는 식재료를 현대적인 조리 기법으로 요리하여 맛있고 건강한 식사를 할 수 있다.",33.4861735,126.415129,음식점,064-712-1780,https://api.cdn.visitjeju.net/photomng/imgpath/202205/30/56b674a8-9d9d-4978-82ac-b8f43ee1b477.jpg,https://api.cdn.visitjeju.net/photomng/thumbnailpath/202205/30/5a50f082-dc69-4de3-8fe8-4a00960d018d.jpg,12922.0,49,"음식,칼국수",6
1060,CNTS_000000000020540,비포크비스트로,제주특별자치도 서귀포시 태평로 417-1,"['도시락', '흑돼지도시락', '팥빙수', '음식', '흑돼지', '파스타', '감바스']",도시락에 제주를 담다,33.2451005,126.5649536,음식점, 064-732-1037,https://api.cdn.visitjeju.net/photomng/imgpath/201804/30/34a89704-d4ae-49a6-9a65-33267f537a01.jpg,https://api.cdn.visitjeju.net/photomng/thumbnailpath/201804/30/152fd872-1274-499d-a404-5fdabff362e1.jpg,12907.0,29,"음식,파스타,흑돼지",10
1509,CONT_000000000501316,연동마라도횟집,제주특별자치도 제주시 신광로8길 3,"['자리돔', '돌돔', '고등어', '방어', '횟집', '음식', '한식', '회', '해산물']",저렴한 술안주부터 가족 외식메뉴까지 다양한 횟집. 방어철에 가봐야하는 횟집. 2016 KOREAT JEJU TOP10 선정,33.4868335,126.4895539,음식점,064-746-2286,https://api.cdn.visitjeju.net/photomng/imgpath/201911/01/db6e45ba-49f9-46f5-a767-14db7b00b7e9.jpg,https://api.cdn.visitjeju.net/photomng/thumbnailpath/201911/01/8d69c997-6011-46d4-9e94-231a88fa5b63.jpg,12772.0,28,"해산물,고등어,회,음식,횟집,한식",18
3159,CNTS_000000000020456,동복리해녀촌,제주특별자치도 제주시 구좌읍 동복로 33,"['전복죽', '회국수', '성게국수', '음식', '물회', '한치물회', '전복물회', '문어물회', '소라물회', '고등어구이', '한치']",동복리에 위치한 회국수 맛집,33.553608,126.70991,음식점,064-783-5438,https://api.cdn.visitjeju.net/photomng/imgpath/201804/30/4262451c-24e3-4462-88ae-993807a9623c.jpg,https://api.cdn.visitjeju.net/photomng/thumbnailpath/201804/30/46f9c1c2-b4cd-4d8c-8f98-eb1062b54dbe.jpg,12695.0,47,"전복죽,전복물회,물회,음식,한치,고등어구이,한치물회",28
1372,CNTS_000000000020076,전설의마녀,제주특별자치도 제주시 애월읍 애월해안로 715,"['돈까스', '볶음밥', '떡볶이', '낙지해물생라면', '전보해물볶음밥', '음식', '라면']",애월해안도로에 위치한 전설의 마녀,33.4840886,126.3775352,음식점,064-746-9080,https://api.cdn.visitjeju.net/photomng/imgpath/202111/09/fe60b2a8-2c48-426d-9991-4f5e751da938.jpg,https://api.cdn.visitjeju.net/photomng/thumbnailpath/202111/09/a7e1e085-223b-450d-bd42-0b38521219af.jpg,12580.0,33,"떡볶이,돈까스,라면,볶음밥,음식",17
908,CNTS_000000000001031,스시호시카이,제주특별자치도 제주시 오남로 90,"['스시', '일식', '오마카세', '회', '초밥', '음식']","제주시 KBS 신규청사 옆에 위치, 2016 KOREAT JEJU TOP10 선정",33.487827,126.51764,음식점,064-713-8838,https://api.cdn.visitjeju.net/photomng/imgpath/202111/02/5ded7a46-14c1-4cae-8320-bbdcdf84b647.jpg,https://api.cdn.visitjeju.net/photomng/thumbnailpath/202111/02/5767ff5a-94d5-439f-bb8a-144bd46b5232.jpg,12558.0,18,"초밥,음식,일식,회",10
2311,CONT_000000000501261,뽈살집,제주특별자치도 서귀포시 중정로91번길 37,"['꽃돼지', '특수부위', '한식', '음식', '흑돼지', '돼지구이', '돼지껍떼기']",도축장 직송의 꽃돼지만을 취급하는 곳,33.250668,126.5632,음식점,064-763-6860,https://api.cdn.visitjeju.net/photomng/imgpath/201804/30/1616e52a-fc52-4b2e-a77e-0eac0361749b.jpg,https://api.cdn.visitjeju.net/photomng/thumbnailpath/201804/30/231d33ff-2418-4e33-b53e-4e98920d1a1f.jpg,12412.0,29,"돼지구이,한식,음식,흑돼지",14
1361,CNTS_000000000020289,카페동백,제주특별자치도 제주시 조천읍 동백로 68,"['카페', '커피', '에이드', '케이크', '브런치', '음식', '동백', '아메리카노', '카페라떼', '바닐라라떼', '카푸치노', '디저트', '티라미수']",창 너머 풍경이 예쁜 카페,33.4777041,126.7135515,음식점,070-4232-3054,https://api.cdn.visitjeju.net/photomng/imgpath/201804/30/142ec506-1b72-424c-95c2-5d0fd20e25c2.jpg,https://api.cdn.visitjeju.net/photomng/thumbnailpath/201804/30/c01ba767-5158-46b3-aa4e-571e5af189c7.jpg,12349.0,54,"케이크,아메리카노,디저트,바닐라라떼,카푸치노,카페,커피,음식,카페라떼,브런치,에이드",46
1684,CNTS_000000000020421,미영이네식당,제주 서귀포시 대정읍 하모항구로 42,"['고등어회', '해물탕', '방어회', '음식', '방어', '고등어구이', '고등어']",고등어회가 맛있다고 소문난 미영이네식당,33.21765,126.2499,음식점,064-792-0077,https://api.cdn.visitjeju.net/photomng/imgpath/201804/30/8cdcd69f-b298-4768-a6ae-adb73f3cc158.jpg,https://api.cdn.visitjeju.net/photomng/thumbnailpath/201804/30/6faa0e7e-6d0a-4f0b-8864-656c7bd87780.jpg,12147.0,28,"고등어,음식,고등어구이,고등어회,해물탕",21
957,CNTS_000000000019644,국수마당,제주특별자치도 제주시 삼성로 65,"['향토음식', '고기국수', '콩나물국밥', '아강발', '몸국', '음식', '비빔국수', '멸치국수', '콩국수', '만두']",신상공원 후문 앞에 국수거리에 있는 국수마당본점,33.5080638,126.5322532,음식점,064-727-6001,https://api.cdn.visitjeju.net/photomng/imgpath/201804/30/7296e573-e753-40ff-b048-81427d0113c9.jpg,https://api.cdn.visitjeju.net/photomng/thumbnailpath/201804/30/e88b1d03-356e-4874-9bed-7c49a65de341.jpg,12103.0,42,"향토음식,음식,몸국,고기국수",15
1496,CONT_000000000501271,삼무국수,제주특별자치도 제주시 삼무로3길 46-1,"['고기국수', '회쟁반국수', '향토음식', '음식', '비빔국수', '돔베고기', '멸치국수', '순두부찌개']",제주식 고기국수와 암퇘지를 사용한 돔베고기가 맛있는 곳,33.490567,126.491045,음식점,064-711-5656,https://api.cdn.visitjeju.net/photomng/imgpath/201804/30/f1b82502-b8a8-4b33-8ed1-da3a8b256350.jpg,https://api.cdn.visitjeju.net/photomng/thumbnailpath/201804/30/df39e1a6-9422-4844-b1da-4b7872b1c491.jpg,12004.0,39,"향토음식,음식,돔베고기,고기국수",17
2394,CNTS_000000000020553,메종드쁘띠푸루,제주특별자치도 제주시 신설로7길 3,"['빵집', '베이커리', '파이', '타르트', '음식', '빵', '감바스', '파스타', '크림파스타', '샌드위치', '토스트']",동경 본점의 제과제빵 레시피를 오롯이 재현해내는 베이커리,33.476097,126.5543,음식점,064-702-0919,https://api.cdn.visitjeju.net/photomng/imgpath/201804/30/5968bd1f-95ac-4ef9-aabb-fc42d02b0f0a.jpeg,https://api.cdn.visitjeju.net/photomng/thumbnailpath/201804/30/c8edc5aa-7e36-4d5e-ae35-cc4f64cc3096.jpeg,11857.0,42,"베이커리,샌드위치,음식,크림파스타,빵,파스타",24
3418,CNTS_200000000007209,맥파이 브루어리,제주특별자치도 제주시 동회천1길 23,"['친구', '맑음', '휴식/힐링', '여름', '커플', '맥주', '수제맥주', '제주양조장', '피맥집', '맥파이', '음식']",경리단길 골목에서 동네 친구 4명이 맥주를 마시다 시작하게 된 사업이 바로 맥파이 브루잉 컴퍼니이다. 피맥집으로도 유명한 맥파이는 물 좋고 공기 좋은 제주도에 양조장을 두고 있다.,33.4647845,126.6329231,음식점,064-721-0227,https://api.cdn.visitjeju.net/photomng/imgpath/201807/10/b456a23c-93c4-4857-b8ef-1c492aa326fe.jpg,https://api.cdn.visitjeju.net/photomng/thumbnailpath/201807/10/c17d3779-2bcb-4e3a-81c6-4bf3eeed4ad8.jpg,11853.0,42,"친구,음식,휴식/힐링,커플",14
1367,CNTS_000000000020320,산도롱맨도롱,제주특별자치도 제주시 구좌읍 해맞이해안로 2284,"['고기국수', '돔베고기', '왕만두', '주먹밥', '음식', '갈비']",매일 돈사골을 우려내 국물이 진국,33.4921891,126.9097197,음식점,064-782-5105,https://api.cdn.visitjeju.net/photomng/imgpath/202201/10/57afd19d-e94c-425d-8fd8-b1a25ff9aa70.jpg,https://api.cdn.visitjeju.net/photomng/thumbnailpath/202201/10/6784f456-bbf1-432e-a9f8-c1c9b97bb851.jpg,11798.0,23,"음식,돔베고기,갈비,고기국수",15
3705,CONT_000000000501427,헤이브라더,제주특별자치도 서귀포시 안덕면 형제해안로 72,"['카페', '펍', '루프탑', '아메리카노', '주스', '청귤차', '과일주스', '망고스무디', '요거트스무디', '카푸치노', '카페모카', '바닐라라떼']",사계바다가 펼쳐진 곳에 위치한 카페,33.2255616,126.2996722,음식점,064-794-0072,https://api.cdn.visitjeju.net/photomng/imgpath/201804/30/9bb24741-d51b-4df4-8652-40de705a13d7.jpg,https://api.cdn.visitjeju.net/photomng/thumbnailpath/201804/30/da75ccea-0b38-4f21-ba1f-8867930158ed.jpg,11789.0,55,"아메리카노,카페모카,카푸치노,바닐라라떼,카페,주스,과일주스",32
750,CONT_000000000501152,피제리아3657,제주특별자치도 서귀포시 안덕면 난드르로 56,"['3657하우스피자', '피자', '양식', '음식', '마르게리따', '레몬에이드', '아메리카노', '카페라떼']",서귀포시 안덕면에 위치한 피제리아3657은 100% 참나무 장작을 사용하여 450도 이상의 고온에서 구워낸 이탈리안 화덕피자를 만나볼 수 있다.,33.23645,126.36306,음식점,064-738-3658,https://api.cdn.visitjeju.net/photomng/imgpath/202203/11/1451ee12-ac76-4693-a1e4-90d6285cd2a9.jpg,https://api.cdn.visitjeju.net/photomng/thumbnailpath/202203/11/dacbd94d-ef7b-4b09-a416-6ae662210746.jpg,11784.0,41,"아메리카노,양식,피자,카페라떼,음식",19
3424,CNTS_000000000018608,우도 풍원,제주특별자치도 제주시 우도면 우도해안길 340,"['돼지주물럭', '한라산볶음밥', '한치주물럭', '음식', '전복죽', '한치']",한치주물럭과 돼지주물럭이 주메뉴인 우도에 위치한 풍원,33.50834,126.94413,음식점,064-784-1894,https://api.cdn.visitjeju.net/photomng/imgpath/201804/30/a37de9af-1c08-49b6-8fc2-8b41a3137fae.jpg,https://api.cdn.visitjeju.net/photomng/thumbnailpath/201804/30/aa643fb3-d5dd-470b-bd11-ba30174f1a06.jpg,11762.0,28,"전복죽,음식,한치",9
1316,CNTS_000000000020206,슬슬슬로우,제주특별자치도 제주시 구좌읍 행원로7길 23-8,"['돔베고기샌드위치', '돔베라면', '돔베덮밥', '음식', '돔베고기', '김밥', '라면']",흑돼지를 제주식으로 수육하여 도마에 바로 올려내는 향토음식의 재해석,33.5340986,126.7954364,음식점,010-9261-9284,https://api.cdn.visitjeju.net/photomng/imgpath/201910/24/6a85993d-2d5e-4e4b-a7fb-e70cc18f5acf.jpg,https://api.cdn.visitjeju.net/photomng/thumbnailpath/201910/24/e8eb7f83-a1a1-4df8-8e80-6865df254063.jpg,11624.0,32,"음식,돔베고기,김밥,라면",13
1445,CNTS_000000000020118,바다를본돼지(판포점),제주특별자치도 제주시 한경면 판포1길 16,"['돼지고기', '해산물', '된장찌개', '한식', '음식', '흑돼지', '흑돼지구이', '오겹살', '목살', '전복뚝배기', '김치찌개']",제주흑돼지와 해산물의 조화,33.3656791,126.1979116,음식점,064-772-5509,https://api.cdn.visitjeju.net/photomng/imgpath/202111/15/8c09530d-f544-4202-ba99-225ed0e2ed5c.jpg,https://api.cdn.visitjeju.net/photomng/thumbnailpath/202111/15/01f0fb09-56b2-48ac-85ba-b8bb09487bce.jpg,11603.0,47,"김치찌개,해산물,된장찌개,흑돼지구이,음식,전복뚝배기,오겹살,목살,한식,흑돼지",42
1465,CNTS_000000000020322,일통이반,제주특별자치도 제주시 중앙로2길 25,"['해산물', '문어회', '해물탕', '우럭조림', '보말죽', '음식', '회', '문어숙회', '소라', '전복버터구이', '생선구이정식', '옥돔구이']","제주 해남 1호 식당, 제주 구도심 향토음식전문",33.5170648,126.5221484,음식점,064-752-1028,https://api.cdn.visitjeju.net/photomng/imgpath/201804/30/321575d5-ba26-42a2-9ec8-07f27a704168.jpg,https://api.cdn.visitjeju.net/photomng/thumbnailpath/201804/30/c69e7674-3902-494c-84ce-d897f96648f7.jpg,11544.0,52,"해산물,옥돔구이,생선구이정식,회,음식,해물탕",24
960,CNTS_000000000021910,제갈양,제주특별자치도 제주시 한림읍 한림로 155,"['갈치구이', '갈치조림', '한식', '음식', '갈치', '제주갈치조림', '갈치회', '제주갈치구이']","갈치구이, 갈치조림 맛집",33.386135,126.224754,음식점,064-796-9933,https://api.cdn.visitjeju.net/photomng/imgpath/201804/30/ccf023bb-fcbc-412b-abf1-282374112e42.jpg,https://api.cdn.visitjeju.net/photomng/thumbnailpath/201804/30/4c50ba8f-bcb4-4ca6-bce4-126d882dd272.jpg,11513.0,36,"갈치구이,갈치,음식,갈치조림,한식,제주갈치구이",25
1595,CONT_000000000501355,제주뚝배기,제주특별자치도 서귀포시 성산읍 일출로 255,"['한치물회', '옥돔구이', '성게국', '물회', '옥돔', '한치', '전복해물뚝배기', '갈치조림', '전복죽', '고등어구이']",인기메뉴는 오분자기뚝배기와 전복뚝배기,33.4611374,126.9330294,음식점,064-782-1089,https://api.cdn.visitjeju.net/photomng/imgpath/201804/30/deaba6a0-48c5-4b53-a8cb-68ef2f5298d0.jpg,https://api.cdn.visitjeju.net/photomng/thumbnailpath/201804/30/afc38288-e609-4047-819f-73811e1c16cc.jpg,11508.0,45,"옥돔구이,전복죽,물회,갈치조림,한치,고등어구이,한치물회",30
1332,CNTS_000000000001107,목포고을,제주특별자치도 서귀포시 일주서로 968-5,"['목살', '오겹살', '열무국수', '김치찌개', '음식', '흑돼지', '흑돼지구이', '된장찌개']",서귀포시 중문에 위치한 숙성 흑돼지 전문점. 된장부터 모든 밑반찬을 직접 만든다.,33.2814107,126.4111118,음식점,064-738-5551,https://api.cdn.visitjeju.net/photomng/imgpath/201804/30/9505d73c-0456-4a5d-b10b-7908c1108597.jpg,https://api.cdn.visitjeju.net/photomng/thumbnailpath/201804/30/4f7437e2-d95d-407c-a4ac-e589384294e8.jpg,11467.0,34,"김치찌개,된장찌개,흑돼지구이,음식,오겹살,목살,흑돼지",29
2789,CNTS_000000000020215,메밀꽃차롱,제주특별자치도 제주시 연오로 136 (연동),"['꿩', '전골', '메밀쟁반국수', '음식', '수제비', '메밀', '칼국수', '샤브샤브', '꿩코스요리']",제주시 연북로 KCTV사거리 동쪽 200m 지점에 위치한 메밀전문점,33.481255,126.500824,음식점,064-711-6841,https://api.cdn.visitjeju.net/photomng/imgpath/201804/30/409101d9-d0a3-4a27-81b0-8e64f92e985e.jpg,https://api.cdn.visitjeju.net/photomng/thumbnailpath/201804/30/6e1b3d70-96e9-4d1c-a4eb-01c21442b7ba.jpg,11353.0,36,"음식,칼국수",6
1671,CNTS_000000000020471,카이로스,제주특별자치도 제주시 애월읍 장유길 49-39,"['카페', '브런치', '오가닉카페', '유기농', '음식', '아메리카노', '카페라떼', '주스', '파스타', '파니니']","애월에 위치한 오가닉 테마 카페, 유기농 원재료로만 만든 식사와 차",33.449875,126.39992,음식점,064-799-2299,https://api.cdn.visitjeju.net/photomng/imgpath/201811/23/77c71529-4ad2-436e-b7fd-989efcc0e4ed.JPG,https://api.cdn.visitjeju.net/photomng/thumbnailpath/201811/23/863628ad-e073-4c87-aec7-390f166e4645.JPG,11257.0,41,"아메리카노,카페,카페라떼,음식,주스,브런치,파스타",27
3166,CNTS_000000000019945,풍림다방,제주특별자치도 제주시 구좌읍 중산간동로 2267-4,"['브뤠베', '커피', '카페', '음식', '아메리카노', '에스프레소', '주스', '과일주스']",달달하고 매력적인 브레붸가 유명한 풍림 다방,33.4718397,126.785755,음식점,010-5775-7401,https://api.cdn.visitjeju.net/photomng/imgpath/201804/30/cdadc90a-1a3d-4ae7-bc49-34ee301c5d9b.jpg,https://api.cdn.visitjeju.net/photomng/thumbnailpath/201804/30/8f04af00-99ba-4cc4-a905-fa17545f824c.jpg,11177.0,32,"아메리카노,카페,커피,음식,주스,에스프레소,과일주스",28
1512,CNTS_000000000020123,오는정김밥,제주특별자치도 서귀포시 동문동로 2,"['김밥', '분식', '오는정김밥', '음식', '김치김밥', '참치김밥', '더블치즈김밥', '땡초김밥', '멸치김밥']",서귀포에 위치한 쫄깃한 튀김의 식감이 살아있는 김밥집.,33.249676,126.56757,음식점,064-762-8927,https://api.cdn.visitjeju.net/photomng/imgpath/202111/10/69c1f4fd-2d95-48b0-a1ed-4c14e7a3ac1f.jpg,https://api.cdn.visitjeju.net/photomng/thumbnailpath/202111/10/2b955b55-084f-455b-8bee-62787a0bf0d5.jpg,11170.0,41,"음식,김밥",5
1527,CONT_000000000501418,해녀식당(동복리),제주특별자치도 제주시 구좌읍 동복로 5,"['해초회덮밥', '감귤회국수', '보말미역국', '횟집', '향토음식', '음식', '회']",인생 회국수,33.5535282,126.7069216,음식점,064-783-4158,https://api.cdn.visitjeju.net/photomng/imgpath/201911/07/8faef0a2-daf1-4215-8b4e-070593de4195.jpeg,https://api.cdn.visitjeju.net/photomng/thumbnailpath/201911/07/ddc36201-5678-4a5a-b292-3421e6616a04.jpeg,11113.0,30,"횟집,향토음식,음식,회",12
2547,CONT_000000000501365,제주흑돈세상수라간,제주특별자치도 서귀포시 중산간동로 8051,"['흑돼지', '치자밥', '한식', '오겹살', '삼겹살', '김치찌개', '돼지구이', '흑돼지구이']",흑돼지 축산 농가 2곳을 직접 운영하는 흑돈세상 수라간,33.2639747,126.5566914,음식점,064-762-8588,https://api.cdn.visitjeju.net/photomng/imgpath/202111/26/78db9e67-03b3-476d-94c1-0e1b0b8c4049.jpg,https://api.cdn.visitjeju.net/photomng/thumbnailpath/202111/26/5c5222c7-764e-4f75-a161-911bfdbd833a.jpg,11041.0,34,"김치찌개,삼겹살,흑돼지구이,오겹살,한식,돼지구이,흑돼지",30
3042,CNTS_000000000022095,카페 사우다드,제주특별자치도 서귀포시 대정읍 하모이삼로51번길 28,"['카페', '커피', '디저트', '수제음료', '음식', '유자에이드', '브라우니', '아메리카노', '카페라떼', '바닐라라떼', '에스프레소']",좋은 품질의 커피와 파베 브라우니가 유명한 카페 ,33.2255301,126.2536093,음식점,064-772-1327,https://api.cdn.visitjeju.net/photomng/imgpath/202111/18/e13c68c1-9875-425c-bfb5-00f3e438e10c.jpg,https://api.cdn.visitjeju.net/photomng/thumbnailpath/202111/18/a34faafe-a96c-4644-882b-444531e7d63b.jpg,11022.0,51,"아메리카노,디저트,바닐라라떼,카페,커피,음식,카페라떼,에스프레소",35
35,CNTS_000000000020814,서문수산,제주특별자치도 제주시 서문로4길 13-2,"['회', '해산물', '생선요리코스', '음식', '갈치회', '고등어회', '한치물회', '한치회', '광어회', '한치']",배가 터지도록 줄줄이 나오는 생선요리 코스를 맛보고싶다면,33.511383,126.517975,음식점,064-722-3021,https://api.cdn.visitjeju.net/photomng/imgpath/201811/05/ba4243cb-2ee6-4103-a978-9366f6fe95cb.jpg,https://api.cdn.visitjeju.net/photomng/thumbnailpath/201811/05/d94514c1-aec4-4e50-b455-7d52ab9f0b01.jpg,10920.0,40,"해산물,회,음식,한치,고등어회,한치물회",21
3334,CNTS_000000000018861,봉끄랑,제주특별자치도 제주시 우도면 우도해안길 144,"['버거', '수제버거', '땅콩빵', '음식', '빵', '햄버거', '아메리카노', '에이드', '스무디']",인기메뉴는 알록달록한 레인보우 수제버거,33.4943265,126.9451046,음식점,064-784-8899,https://api.cdn.visitjeju.net/photomng/imgpath/201804/30/c166be53-6d78-4ee5-a8f9-a8a171d0e05d.jpg,https://api.cdn.visitjeju.net/photomng/thumbnailpath/201804/30/9fbc55e5-c6b9-4185-8c8e-5657dc4f4d1b.jpg,10813.0,34,"아메리카노,스무디,음식,빵,에이드",18
476,CONT_000000000501419,성산해오름식당,제주특별자치도 서귀포시 성산읍 일출로 260,"['갈치조림', '문어해물라면', '성게알비빔밥', '음식', '갈치구이', '제주갈치구이', '옥돔구이', '제주갈치조림', '전복뚝배기', '전복죽', '해물라면', '라면']","대표메뉴는 전복, 오분작, 해물뚝배기, 갈치조림",33.461082,126.933586,음식점,064-782-2256,https://api.cdn.visitjeju.net/photomng/imgpath/201804/30/2b4f404d-305c-4482-b897-5cdcc4f178b2.png,https://api.cdn.visitjeju.net/photomng/thumbnailpath/201804/30/6f0a54e5-dc01-4d63-beef-dc802b6eb10a.png,10756.0,63,"갈치구이,라면,옥돔구이,전복죽,해물라면,음식,전복뚝배기,갈치조림,제주갈치구이",42
3782,CNTS_000000000021914,제주 어가,제주특별자치도 제주시 1100로 3213-8,"['한식', '갈치조림', '갈치구이', '통갈치', '음식', '갈치', '제주갈치조림', '갈치회', '제주갈치구이']",공항근처 맛집 갈치조림의 진리,33.47434,126.48357,음식점,064-749-0081,https://api.cdn.visitjeju.net/photomng/imgpath/201804/30/3df7c3c4-6b6f-4cba-9b1f-09c82025ff3a.jpg,https://api.cdn.visitjeju.net/photomng/thumbnailpath/201804/30/c6c3066a-ec44-4975-8821-c4a8cd0d5a84.jpg,10622.0,40,"갈치구이,갈치,음식,갈치조림,한식,제주갈치구이",25
1384,CNTS_000000000020446,민경이네어등포해녀촌,제주특별자치도 제주시 구좌읍 해맞이해안로 830,"['우럭정식', '물회국수', '우럭튀김', '음식', '옥돔구이', '옥돔', '갈치', '갈치조림', '제주갈치조림', '갈치국']","통째로 튀긴 우럭 한 마리, 우럭 정식, 물회국수",33.553665,126.825775,음식점,064-782-7500,https://api.cdn.visitjeju.net/photomng/imgpath/201910/07/2d59d3dc-bca2-4d69-b92d-26b5a1e7928f.jpg,https://api.cdn.visitjeju.net/photomng/thumbnailpath/201910/07/cbd34c1a-9ca6-4ded-bb26-f82c37aa0019.jpg,10583.0,44,"갈치조림,음식,갈치,옥돔구이",15
1748,CNTS_000000000001373,덤장,제주특별자치도 제주시 용문로 48,"['향토음식', '성게미역국', '돔베고기', '한식', '보말미역국', '음식', '갈치조림', '제주갈치조림', '갈치구이', '제주갈치구이', '몸국', '회덮밥', '한치물회', '전복물회', '한치']",공항 근처 제주 향토 요리 전문점,33.50411,126.50143,음식점,064-713-0550,https://api.cdn.visitjeju.net/photomng/imgpath/201804/30/68ace061-8ce5-4123-b307-0168729172c7.jpg,https://api.cdn.visitjeju.net/photomng/thumbnailpath/201804/30/1315bd85-befc-4c87-8051-69a778c39a83.jpg,10551.0,71,"향토음식,갈치구이,회덮밥,몸국,전복물회,음식,돔베고기,성게미역국,갈치조림,한치,한식,제주갈치구이,한치물회",58
2400,CNTS_000000000020725,88버거,제주특별자치도 서귀포시 동문로 63 (서귀동),"['햄버거', '크림소스버거', '흑돼지버거', '음식', '햄버거스테이크', '치즈버거']",서귀포에 위치한 88버거는 팔팔한 기운으로 팔팔한 재료를 가지고 팔팔하게 팔아보자는 의미를 가지고 가성비 좋은 수제버거를 판매하고 있다.,33.249256,126.56721,음식점,064-733-8488,https://api.cdn.visitjeju.net/photomng/imgpath/202201/10/6b2a8b26-3d91-46ca-94b2-ab87f81d110b.jpg,https://api.cdn.visitjeju.net/photomng/thumbnailpath/202201/10/d6632b10-fa67-4b6d-a2cd-4647551bf2c5.jpg,10450.0,32,음식,2
3114,CNTS_200000000009008,새빌,제주특별자치도 제주시 애월읍 평화로 1529,"['부모', '커플', '아이', '친구', '맑음', '흐림', '경관/포토', '휴식/힐링', '사계절', '오름', '일몰', '음식', '포토스팟', '아메리카노', '콜드브루', '바닐라라떼', '카페라떼', '식당']",제주 억새 명소 새별오름 뷰 애월 카페,33.36437552671165,126.3630633029968,음식점,064-794-0073,https://api.cdn.visitjeju.net/photomng/imgpath/201908/01/610e9716-5713-41ac-acd7-331f9b7ee6e7.JPG,https://api.cdn.visitjeju.net/photomng/thumbnailpath/201908/01/562329f8-91b2-407a-a558-c96d837064dc.JPG,10408.0,72,"아메리카노,바닐라라떼,커플,친구,음식,휴식/힐링,카페라떼,식당",34
1610,CONT_000000000501412,한성식당,제주특별자치도 서귀포시 성산읍 일출로 287,"['갈치조림', '해산물', '한식', '음식', '향토음식', '갈치', '제주갈치조림', '전복해물탕', '해물탕', '갈치구이', '옥돔구이', '전복죽', '회덮밥']",성산일출봉 인근에 위치한 향토음식점,33.4631697,126.9350183,음식점,064-782-4646,https://api.cdn.visitjeju.net/photomng/imgpath/201804/30/52962163-607c-4634-81b7-7058279fe527.jpg,https://api.cdn.visitjeju.net/photomng/thumbnailpath/201804/30/effa055a-1e85-40e0-8c22-d78c74a524b4.jpg,10354.0,57,"향토음식,갈치구이,해산물,옥돔구이,전복죽,회덮밥,갈치,음식,갈치조림,한식,해물탕",44
3771,CNTS_000000000020430,덕승식당(구관),제주특별자치도 서귀포시 대정읍 하모항구로 66,"['회', '객주리조림', '갈치조림', '음식', '물회', '한치물회', '전복물회', '문어물회', '소라물회', '갈치구이', '제주갈치조림', '제주갈치구이', '한치']","생선요리가 맛있는 식당, 2016 KOREAT TOP10 선정",33.2192451,126.2513444,음식점,064-794-0177,https://api.cdn.visitjeju.net/photomng/imgpath/201804/30/3ac19cb0-1e5f-41e4-9854-62905921569d.gif,https://api.cdn.visitjeju.net/photomng/thumbnailpath/201804/30/5e38e3b7-7748-498e-8ec1-eb301ec1dd38.gif,10350.0,60,"갈치구이,전복물회,물회,회,음식,갈치조림,한치,제주갈치구이,한치물회",37
2832,CNTS_000000000001507,황금어장(제주시),제주특별자치도 제주시 사장길 14,"['향토음식', '옥돔미역국', '갈치호박국', '성게국', '방어회', '음식', '갈치조림', '제주갈치조림', '제주갈치구이', '갈치구이', '고등어구이', '고등어조림', '방어']",제주도 향토음식을 다양하게 즐길 수 있는 곳,33.4843984,126.4955557,음식점,064-748-8989,https://api.cdn.visitjeju.net/photomng/imgpath/201804/30/893e9b44-b2a1-4aa3-8404-870197d6d9fb.jpg,https://api.cdn.visitjeju.net/photomng/thumbnailpath/201804/30/2e748ed8-1509-4a85-9ac6-b47aedfc97ac.jpg,10329.0,66,"향토음식,갈치구이,고등어조림,음식,갈치조림,고등어구이,제주갈치구이",36
2819,CNTS_000000000020025,영주말가든,제주특별자치도 제주시 연북로 196,"['말고기', '말곰탕', '말육회', '말불고기', '불고기전골', '음식', '말고기사시미', '육회', '비빔밥']",특성화 상품 말고기로 친환경 음식문화를 실천하는 향토음식점,33.4812517,126.5021897,음식점,064-748-4343,https://api.cdn.visitjeju.net/photomng/imgpath/202111/23/20a72e45-406e-4c53-8faf-3d8568ef6180.jpg,https://api.cdn.visitjeju.net/photomng/thumbnailpath/202111/23/331de484-5d87-4256-864c-cd9749bc9812.jpg,10125.0,39,음식,2
1046,CNTS_000000000001213,연미정,제주특별자치도 제주시 세평항로 14,"['전복구이', '전복죽', '전복가마솥밥', '전복회', '음식', '전복', '전복뚝배기']",전복 가마솥 밥이 유명한 세화민속 오일장 근처의 맛집,33.524647,126.85387,음식점,064-784-8856,https://api.cdn.visitjeju.net/photomng/imgpath/202110/26/e8074775-dd04-40d2-99ed-0faf13039784.jpg,https://api.cdn.visitjeju.net/photomng/thumbnailpath/202110/26/e39c3831-1025-48c9-b1f4-99659540953a.jpg,10105.0,31,"전복죽,음식,전복뚝배기,전복",15
753,CNTS_000000000020649,바람벽에흰당나귀,제주특별자치도 제주시 구좌읍 동복로 11,"['카페', '음료', '주스', '말차빙수', '음식', '아메리카노', '카페라떼', '카페모카', '바닐라라떼', '카푸치노', '눈꽃빙수']",제주시 동복리에 위치한 바람벽에흰당나귀는 푸른바다를 볼 수 있는 창가자리가 많아 넓은 바다를 보며 다양한 음료와 디저트를 함께 즐길 수 있는 카페이다.,33.55385,126.70767,음식점,064-782-8611,https://api.cdn.visitjeju.net/photomng/imgpath/202203/11/677a9c6f-8435-49cd-8b39-79d9fbbb3dcb.jpg,https://api.cdn.visitjeju.net/photomng/thumbnailpath/202203/11/7e8d5576-3901-449f-8440-4a4a904d98fb.jpg,9911.0,48,"아메리카노,카페모카,바닐라라떼,카푸치노,음료,카페,음식,카페라떼,주스",38
916,CONT_000000000501233,만조이천쌀밥,제주특별자치도 서귀포시 성산읍 성산중앙로 5,"['돌솥정식', '성산정식', '만조정식', '한식', '음식', '해물뚝배기', '전복뚝배기', '갈치조림', '고등어조림', '청국장', '전복돌솥밥']",성산에 위치한 정식과 해물조림이 전문인 만조이천쌀밥 성산포점,33.4609007,126.9311907,음식점,064-784-9793,https://api.cdn.visitjeju.net/photomng/imgpath/201804/30/78a22cee-ae5c-4a54-aff4-90e0cffd62ff.jpg,https://api.cdn.visitjeju.net/photomng/thumbnailpath/201804/30/25317513-4873-4412-b1e7-17820ea49d3b.jpg,9884.0,53,"해물뚝배기,고등어조림,음식,전복뚝배기,갈치조림,한식",28
1210,CONT_000000000501242,무뚱 식도락 식당,제주특별자치도 서귀포시 남원읍 태위로689번길 10,"['옥돔', '간장게장', '한식', '음식']",청양고추로만 간을 하여 자연 그대로의 옥돔 맛을 느낄 수 있는 19년 전통 옥돔지리 전문점,33.2803755,126.7201346,음식점,064-764-6004,https://api.cdn.visitjeju.net/photomng/imgpath/201804/30/88959294-ff05-49e8-b531-4b24991c6444.jpg,https://api.cdn.visitjeju.net/photomng/thumbnailpath/201804/30/c21cb936-944e-4723-aa33-82f520901633.jpg,9875.0,13,"한식,음식",5
1925,CONT_000000000501191,넉둥베기 고사리육개장,제주특별자치도 제주시 용담1동 306-5,"['육개장', '고사리', '한식', '음식', '국밥', '김치찌개']",청정고사리를 사용한 육개장이 일품인 착한가격업소,33.509823,126.51268,음식점,064-743-2585,https://api.cdn.visitjeju.net/photomng/imgpath/201804/30/1ad7aa07-f08f-4d2d-92d0-742a8c5ae3f0.jpg,https://api.cdn.visitjeju.net/photomng/thumbnailpath/201804/30/0624af61-fcd6-4368-ab7c-24bf7b2f52fb.jpg,9869.0,21,"국밥,김치찌개,한식,음식",13
2467,CNTS_200000000009010,제주901,제주특별자치도 제주시 1100로 2977-10,"['웰니스', '힐링', '명상', '휴식', '커플', '음식', '식당', '브런치']",채식주의자들을 위한 비건카페,33.453057,126.4865013,음식점,010-4614-2518,https://api.cdn.visitjeju.net/photomng/imgpath/202108/03/52c8f077-d88d-4bdd-a2aa-cb858e82bff2.jpg,https://api.cdn.visitjeju.net/photomng/thumbnailpath/202108/03/4b15bebc-5e07-4144-a0ae-21959d34e3c4.jpg,9860.0,25,"식당,음식,브런치,커플",12
2291,CNTS_200000000007432,랜딩 다이닝(Landing dining),제주특별자치도 서귀포시 안덕면 신화역사로304번길 38 랜딩관 제주신화월드 호텔앤리조트 G층,"['뷔페', '양식', '랜딩다이닝', '음식']",랜딩관 제주신화월드 지하 1층에 위치한 올 데이 다이닝 공간.,33.30598234653195,126.3174917412781,음식점,064-908-2300,https://api.cdn.visitjeju.net/photomng/imgpath/202007/21/2f3573c2-3fbf-4719-9741-7599566cc50a.JPG,https://api.cdn.visitjeju.net/photomng/thumbnailpath/202007/21/bec551a8-6b4e-4fef-9999-bd1baf8cbfdd.JPG,9811.0,14,"양식,음식",5
2117,CONT_000000000501216,돌하르방식당,제주특별자치도 제주시 한림읍 한림로 300,"['갈치조림', '고등어구이', '한식', '향토음식', '음식', '갈치', '해물뚝배기', '고등어회']",제주의 담백한 전통음식,33.3879944,126.2397837,음식점,064-796-0001,https://api.cdn.visitjeju.net/photomng/imgpath/202010/21/587fa21b-d4a2-46e3-a082-9185b738454f.JPG,https://api.cdn.visitjeju.net/photomng/thumbnailpath/202010/21/abd19f7b-f245-440c-8a8a-076337840dbd.JPG,9687.0,35,"향토음식,해물뚝배기,갈치,음식,갈치조림,한식,고등어회,고등어구이",35
2278,CONT_000000000501329,올레수산회센터,제주도 서귀포시 중정로 61번길 12,"['횟집', '회국수', '회덮밥', '한식', '옥돔구이', '향토음식', '음식', '회', '옥돔', '매운탕', '고등어구이']",매일올레시장 안에 위치한 횟집,33.24885,126.56308,음식점,064-732-4971,https://api.cdn.visitjeju.net/photomng/imgpath/202111/16/44df24e0-fdc1-46f0-84bf-421de5089a81.jpg,https://api.cdn.visitjeju.net/photomng/thumbnailpath/202111/16/b78685fb-447c-4697-a4b2-cb1842e77721.jpg,9685.0,41,"향토음식,회덮밥,옥돔구이,회,음식,매운탕,횟집,한식,고등어구이",34
914,CNTS_000000000020974,은희네해장국(일도점),제주특별자치도 제주시 고마로13길 8,"['해장국', '내장탕', '소고기해장국', '음식']",줄서서 먹는 해장국,33.508522,126.5408,음식점,064-726-5622,https://api.cdn.visitjeju.net/photomng/imgpath/201909/11/4303e8e9-1aa7-43a5-8cef-41b243b91b70.jpg,https://api.cdn.visitjeju.net/photomng/thumbnailpath/201909/11/b6f7326e-0b0a-45d9-858e-ae478af1f89d.jpg,9650.0,17,"음식,해장국",6
1467,CNTS_000000000020378,섭지해녀의집,제주특별자치도 서귀포시 성산읍 섭지코지로 95,"['해산물', '전복죽', '성게칼국수', '전복회', '해삼', '음식', '전복', '회', '한치회', '소라', '칼국수', '한치']",창밖으로 보이는 바다에서 잡은 싱싱한 해산물,33.43373589999999,126.9253996,음식점,064-782-0672,https://api.cdn.visitjeju.net/photomng/imgpath/202010/21/be8b4751-04de-440e-8796-2d4ff87b6e6b.JPG,https://api.cdn.visitjeju.net/photomng/thumbnailpath/202010/21/289ee419-8c9a-4704-b5a6-da586431177e.JPG,9604.0,42,"해산물,전복죽,칼국수,회,음식,전복,한치",22
503,CONT_000000000501163,골막식당,제주특별자치도 제주시 천수로 12,"['고기국수', '수육', '향토음식', '음식', '흑돼지', '콩국수']","제주 동부 경찰서 인근에 위치한 제주식 고기국수를 맛볼 수 있는 한식당, 2016 KOREAT TOP10 선정",33.5024655,126.5384668,음식점,064-753-6949,https://api.cdn.visitjeju.net/photomng/imgpath/201804/30/79199be9-165d-4f38-9632-053e1e5b93b2.gif,https://api.cdn.visitjeju.net/photomng/thumbnailpath/201804/30/85139355-bc50-42d3-9497-f2de106a08a8.gif,9554.0,23,"향토음식,음식,흑돼지,고기국수",16
2179,CNTS_000000000019335,아찌국밥,제주특별자치도 제주시 한경면 고산로 34,"['돼지국밥', '해물짬뽕', '흑돼지돈까스', '음식', '순두부찌개', '해장국', '알탕', '오삼불고기']","한경면 고산에 위치한 국밥집, JEJU GEO FOOD로 선정",33.304047,126.17972,음식점,064-772-3525,https://api.cdn.visitjeju.net/photomng/imgpath/201804/30/217ba1dd-a485-4fc5-839c-6e7a7e76f2bd.jpg,https://api.cdn.visitjeju.net/photomng/thumbnailpath/201804/30/41a979da-3899-41a2-9777-1157811ae2e0.jpg,9521.0,38,"음식,해장국",6
4247,CNTS_000000000018942,우도해녀식당,제주특별자치도 제주시 우도면 우도해안길 440,"['보말칼국수', '보말죽', '우도땅콩아이스크림', '성게미역국', '음식', '아이스크림', '칼국수']","우도해녀가 잡은 싱싱한 해물로 조리한 보말칼국수, 성게 미역국, 보말죽이 맛있는 곳",33.514523,126.94903,음식점,010-9090-3509,https://api.cdn.visitjeju.net/photomng/imgpath/201804/30/282f3f24-0d05-4804-b932-cca1cf666892.jpg,https://api.cdn.visitjeju.net/photomng/thumbnailpath/201804/30/cfe34376-7f22-4c04-b3c2-30e6908bc1cd.jpg,9461.0,38,"칼국수,보말칼국수,음식,성게미역국,아이스크림",24
3184,CNTS_000000000019943,웅스키친,제주특별자치도 제주시 대동길 17-1,"['스테이크', '치아바타', '샌드위치', '파스타', '음식', '함박스테이크', '크림파스타']",송당리에 위치한 제주식 퓨전 이탈리안 음식점으로 흑돼지로 만든 수제 햄버그스테이크가 유명,33.4930736,126.4637705,음식점,064-784-1163,https://api.cdn.visitjeju.net/photomng/imgpath/201804/30/c45ba61e-80de-4d51-b49c-f53ca3e39747.jpg,https://api.cdn.visitjeju.net/photomng/thumbnailpath/201804/30/96a57335-2e84-4ebd-918f-7efaf8940581.jpg,9459.0,34,"샌드위치,스테이크,크림파스타,음식,파스타",22
3117,CNTS_000000000021921,보스코화덕피자,제주특별자치도 제주시 수목원길 27,"['샐러드', '피자', '화덕피자', '돈까스', '양식', '음식', '고르곤졸라화덕피자']",백종원이 인정한 피자 맛집,33.469433,126.4882,음식점,064-745-0904,https://api.cdn.visitjeju.net/photomng/imgpath/202111/15/6ddf9c85-9847-43dd-9ac4-9d36b41c4f15.jpg,https://api.cdn.visitjeju.net/photomng/thumbnailpath/202111/15/056f96ad-ef35-4cae-a322-e55ac6c96e78.jpg,9381.0,31,"돈까스,양식,피자,음식,화덕피자,샐러드",21
441,CNTS_000000000001340,유리네,제주특별자치도 제주시 연북로 146,"['갈치구이', '성게국', '고등어조림', '갈치국', '몸국', '음식', '제주갈치구이', '성게미역국', '물회']",제주시 연동에 위치한 제주공항 근처 향토음식 전문점,33.4814162,126.4971265,음식점,064-748-0890,https://api.cdn.visitjeju.net/photomng/imgpath/201804/30/7aacc487-aeb7-49f6-ba98-667ff78c7ca6.jpg,https://api.cdn.visitjeju.net/photomng/thumbnailpath/201804/30/76fbcb16-b1c7-4acf-b481-a97e1dad5d8c.jpg,9315.0,40,"갈치구이,물회,몸국,고등어조림,음식,성게미역국,제주갈치구이",32
1087,CNTS_000000000018864,망고레이,제주특별자치도 제주시 우도면 우도로 1,"['망고음료', '음료', '카페', '음식', '우도', '아이스크림', '망고', '망고스무디', '망고에이드', '망고주스']",망고주스 프랜차이즈 카페,33.5033191,126.9556775,음식점,064-782-0100,https://api.cdn.visitjeju.net/photomng/imgpath/201804/30/51fcc2f2-2555-4cb8-aeef-19257373b443.jpg,https://api.cdn.visitjeju.net/photomng/thumbnailpath/201804/30/e3d5de23-7bf8-4030-8f31-7ea696810acc.jpg,9303.0,42,"카페,아이스크림,음식,음료",14
1965,CNTS_200000000008072,고마워토토 아뜰리에,제주특별자치도 제주시 애월읍 고성북길 112,"['커피', '쿠킹체험', '쿠키', '라자냐', '치킨', '음식', '크림파스타', '파스타']",셀프 쿠킹 체험과 커피를 즐길 수 있는 체험 공간 ,33.4699704,126.4134769,음식점,064-745-7676,https://api.cdn.visitjeju.net/photomng/imgpath/201812/26/331105da-8a00-4662-84e6-2f2dcabc783b.JPG,https://api.cdn.visitjeju.net/photomng/thumbnailpath/201812/26/8a6322e0-3f6d-4e58-8750-cb2cc19f3149.JPG,9242.0,30,"치킨,음식,커피,크림파스타,파스타",18
839,CNTS_000000000018331,로뎀가든,제주특별자치도 제주시 우도면 우도해안길 264,"['흑돼지주물럭', '한라산볶음밥', '한치해물파전', '음식', '한치']",우도로뎀펜션과 같이 하는 음식점 1층에 위치한 로뎀가든,33.50358,126.94283,음식점,064-782-5501,https://api.cdn.visitjeju.net/photomng/imgpath/201804/30/6cae0500-476a-4b7f-bc7a-fb2232efa31d.png,https://api.cdn.visitjeju.net/photomng/thumbnailpath/201804/30/4df17186-b1d6-4b03-ba59-5f0f39908e6e.png,9193.0,26,"한치,음식",5
1949,CONT_000000000501371,중문신라원,제주특별자치도 서귀포시 천제연로 107,"['말사시미', '말육회', '말양념샤브샤브', '말고기', '흑돼지', '해물뚝배기', '향토음식', '음식']","중문 관광단지에 위치한 말고기, 흑돼지, 갈치, 전복죽 등을 판매하는 향토음식전문점",33.254517,126.41738,음식점,064-739-7920,https://api.cdn.visitjeju.net/photomng/imgpath/201804/30/222b32eb-304d-4aed-8c3d-3e206a9ed22e.jpg,https://api.cdn.visitjeju.net/photomng/thumbnailpath/201804/30/b13026a3-ae58-48ae-b2f0-ec7e03d56a25.jpg,9188.0,38,"향토음식,음식,해물뚝배기,흑돼지",17
1246,CNTS_000000000020257,이드레국수,제주특별자치도 서귀포시 천제연로 93,"['고기국수', '회국수', '성게국수', '전복회국수', '돔베고기', '음식']",중문에 있는 국수전문점,33.255264,126.41573,음식점,064-738-8777,https://api.cdn.visitjeju.net/photomng/imgpath/201911/04/450fa34c-0f89-4d4f-b836-2f94b713dbf9.jpg,https://api.cdn.visitjeju.net/photomng/thumbnailpath/201911/04/de610b76-c937-4021-82f4-8928b6269a40.jpg,9128.0,27,"음식,돔베고기,고기국수",12
1173,CONT_000000000501212,돈사촌 외도점,제주특별자치도 제주시 우평로 283,"['흑돼지', '김치찌개', '한식', '음식', '흑돼지구이', '목살', '오겹살', '돼지구이']",두툼한 제주산 흑돼지 근고기를 합리적인 가격에 맛볼 수 있는 곳,33.4839514,126.4364357,음식점,064-743-0034,https://api.cdn.visitjeju.net/photomng/imgpath/201804/30/afcfa12a-f480-4b77-bf4b-cdbf3c0f82a1.jpg,https://api.cdn.visitjeju.net/photomng/thumbnailpath/201804/30/adbe0dc2-919c-4b21-b19c-79c17eab8dd2.jpg,9109.0,32,"김치찌개,흑돼지구이,음식,오겹살,목살,한식,돼지구이,흑돼지",32
4196,CNTS_000000000022223,레드팬더,제주특별자치도 제주시 신대로18길 51,"['중식', '짬뽕', '짜장', '음식', '고기짬뽕', '짜장면', '사천탕수육', '볶음밥', '탕수육', '잡채밥']","24시간 짬뽕집, 팬더 테마의 인테리어로 아이들이 좋아할 만한 곳",33.4846103,126.4910386,음식점,064-745-6410,https://api.cdn.visitjeju.net/photomng/imgpath/201804/30/5fab4fb7-26d0-447f-bd23-ea2ef5be4c89.jpg,https://api.cdn.visitjeju.net/photomng/thumbnailpath/201804/30/711f15d3-7426-4469-a79a-e03a91f8adcd.jpg,9107.0,38,"중식,볶음밥,짬뽕,탕수육,음식,짜장면",20
1071,CNTS_000000000020356,일출봉쑥빵보리빵,제주특별자치도 서귀포시 성산읍 성산중앙로 30-3,"['오메기떡', '찐빵', '빵', '음식']",성산일출봉 입구에 위치한 쑥빵 전문점,33.462543,126.93316,음식점,064-784-0093,https://api.cdn.visitjeju.net/photomng/imgpath/201804/30/b617c287-bc8e-4fb6-b4a2-a0499bc7a185.jpg,https://api.cdn.visitjeju.net/photomng/thumbnailpath/201804/30/af220774-eb91-4068-8506-5fb0f4e465ab.jpg,9027.0,12,"빵,음식",4
3691,CNTS_000000000021211,더파크뷰(신라호텔),제주특별자치도 서귀포시 중문관광로72번길 75,"['뷔페', '호텔뷔페', '브런치뷔페', '음식', '어린이', '호텔', '테마공원', '브런치', '디저트', '파스타', '크림파스타', '미트볼파스타']","신라호텔의 꽃, 더파크뷰 레스토랑",33.24756,126.40812,음식점,064-735-5334,https://api.cdn.visitjeju.net/photomng/imgpath/202111/03/6dcbf793-9a6f-498d-8f06-15b996a8d3ec.jpg,https://api.cdn.visitjeju.net/photomng/thumbnailpath/202111/03/135afe6c-9ad7-4987-89f5-e2e0dc6cb4f6.jpg,8964.0,53,"디저트,음식,크림파스타,브런치,파스타",20
3667,CNTS_200000000008492,우무(umu),제주특별자치도 제주시 한림읍 한림로 542-1,"['푸딩', '우뭇가사리', '수제푸딩', '음식', '밀크티', '커스터드푸딩']",한림항 근처에 위치한 수제푸딩 전문점.,33.4059055,126.2565392,음식점,010-6705-0064,https://api.cdn.visitjeju.net/photomng/imgpath/201903/25/10df607e-564f-4c14-ae7b-c2461e8e54b4.JPG,https://api.cdn.visitjeju.net/photomng/thumbnailpath/201903/25/d3fc5a56-abf0-438d-8a0a-dd724296a3e3.JPG,8920.0,27,음식,2
2309,CONT_000000000501235,맛있는집,제주특별자치도 서귀포시 동문로 110 (동홍동),"['보말미역국', '향토음식', '음식']","착한가격업소(각재기국, 멜국, 보말국 등 향토음식 전문)",33.25437,126.56119,음식점,064-763-3760,https://api.cdn.visitjeju.net/photomng/imgpath/201804/30/1d696c11-bdd0-4b0c-9eb6-d499a5c940ad.jpg,https://api.cdn.visitjeju.net/photomng/thumbnailpath/201804/30/dbd60042-5cf9-45c3-bd49-6e64fe5fd84d.jpg,8915.0,13,"향토음식,음식",7
478,CNTS_000000000020290,2093하우스,제주특별자치도 제주시 조천읍 남조로 2093,"['흑돼지돈가스', '커피', '전복죽', '음식', '수제돈까스', '메밀', '칼국수', '성게미역국', '육개장', '성게비빔밥', '왕만두']",에코랜드 근처에 위치한 제주 돈까스 맛집,33.427616,126.66658,음식점,070-8833-2093,https://api.cdn.visitjeju.net/photomng/imgpath/201804/30/54ebb08f-9366-49d0-b4cb-4d68c6d19382.jpg,https://api.cdn.visitjeju.net/photomng/thumbnailpath/201804/30/fdf75e71-d916-494a-ae71-a69de99af09a.jpg,8898.0,49,"전복죽,칼국수,음식,커피,성게미역국",19
3452,CNTS_000000000018587,회양과 국수군,제주특별자치도 제주시 우도면 우도해안길 270,"['회', '해물탕', '해산물', '음식', '방어회', '회국수', '회덮밥', '방어']","우도 서빈백사 옆에 위치하고, 회와 국수를 판매하는 음식점",33.50368,126.94212,음식점,064-782-0150,https://api.cdn.visitjeju.net/photomng/imgpath/201804/30/8f71c914-a890-4c6a-99e4-6bbac1acea3c.jpg,https://api.cdn.visitjeju.net/photomng/thumbnailpath/201804/30/5cd20250-1ab1-4892-8070-071e48154a39.jpg,8878.0,27,"해산물,회덮밥,회,음식,해물탕",16
2906,CNTS_000000000020243,산포식당,제주특별자치도 서귀포시 성산읍 서성일로 1134,"['갈치조림', '고등어조림', '음식', '제주갈치조림', '갈치국', '해물뚝배기', '성게미역국', '옥돔구이', '갈치구이', '제주갈치구이']",칼칼한 갈치조림이 일품,33.445087,126.899796,음식점,064-782-2023,https://api.cdn.visitjeju.net/photomng/imgpath/201804/30/589393f7-4136-4dd1-b488-abfd13e28525.jpg,https://api.cdn.visitjeju.net/photomng/thumbnailpath/201804/30/548544e1-1222-4506-96c4-24eb0bd9d944.jpg,8863.0,53,"갈치구이,해물뚝배기,옥돔구이,고등어조림,음식,갈치조림,성게미역국,제주갈치구이",42
809,CNTS_000000000019859,하노이안브라더스,제주특별자치도 제주시 천수동로 1,"['분짜', '쌀국수', '베트남요리', '음식', '소고기쌀국수', '볶음밥', '새우튀김', '반미']",베트남 하노이에서 오랫동안 거주했던 주인 부부가 제주에 정착하며 오픈한 베트남 요리 전문 레스토랑,33.5096261,126.543621,음식점,064-752-7494,https://api.cdn.visitjeju.net/photomng/imgpath/202112/13/9e49934b-2b8f-4a53-a47f-70133e2cc41b.jpg,https://api.cdn.visitjeju.net/photomng/thumbnailpath/202112/13/4b994556-e5ea-4608-90f8-8072bc7f098c.jpg,8805.0,34,"음식,볶음밥",6
477,CNTS_000000000020688,냠냠제주,제주특별자치도 제주시 조천읍 신촌9길 8,"['수제잼', '마멀레이드', '당근잼', '양파잼', '음식']",제철에 나는 제주 친환경 농산물과 유기농 설탕을 이용해 만드는 수제 잼과 마멀레이드,33.53532,126.62229,음식점,064-784-5507,https://api.cdn.visitjeju.net/photomng/imgpath/201804/30/79d6f448-5716-4426-9088-e9207bee8266.jpg,https://api.cdn.visitjeju.net/photomng/thumbnailpath/201804/30/90b40eef-27a7-4627-a003-55befe208aca.jpg,8749.0,20,음식,2
1687,CNTS_000000000020866,카페오름,제주특별자치도 서귀포시 성산읍 삼달로 128,"['카페', '새우파스타', '문어전복토마토파스타', '흑돼지돈가스', '양식', 'illy커피', '음식']",바삭바삭한 흑돼지 돈까스가 맛있는 조용한 카페,33.3723,126.855995,음식점,064-784-4554,https://api.cdn.visitjeju.net/photomng/imgpath/201804/30/8e315949-8296-46e4-8a6e-a68840d20c0a.jpg,https://api.cdn.visitjeju.net/photomng/thumbnailpath/201804/30/2a7f8057-86b4-4683-9d7a-800f20b0c60a.jpg,8719.0,39,"양식,카페,음식",8
868,CNTS_200000000007675,더로맨틱,제주특별자치도 제주시 조천읍 교래1길 26,"['카페', '커피', '커플스냅명소', '웨딩촬영', '웨딩스냅촬영', '음식', '아메리카노', '카페라떼', '녹차라떼', '캐모마일', '얼그레이', '빵', '디저트', '에이드']",제주 조천읍에 위치한 곳으로 커피를 마시며 예쁜 사진을 남길 수 있는 카페,33.4276176,126.6665803,음식점,064-782-6348,https://api.cdn.visitjeju.net/photomng/imgpath/201810/26/72dfe050-50b6-4f66-939d-54404fc2cb30.jpg,https://api.cdn.visitjeju.net/photomng/thumbnailpath/201810/26/52574e6d-acd8-46ee-95d5-55603973829f.jpg,8632.0,63,"아메리카노,디저트,카페,커피,음식,카페라떼,녹차라떼,빵,에이드",34
1136,CONT_000000000501368,중문랜드프리미엄뷔페,제주특별자치도 서귀포시 소보리당로164번길 62,"['뷔페', '흑돼지', '향토뷔페', '음식']",140여 가지의 다양한 요리와 제주산 흑돼지와 제주산 회를 동시에 만끽할 수 있는 특급호텔 수준의 격조 높은 향토뷔페,33.2639753,126.3852041,음식점,064-738-9966,https://api.cdn.visitjeju.net/photomng/imgpath/201804/30/1f18d696-bb54-4fa0-be29-ae2e979e0e64.jpg,https://api.cdn.visitjeju.net/photomng/thumbnailpath/201804/30/33ec6f2e-5922-4fb9-a867-85e877dcbb76.jpg,8606.0,14,"음식,흑돼지",6
430,CNTS_000000000020711,호박다방,제주특별자치도 제주시 애월읍 일주서로 6111,"['카페', '호박라떼', '단호박케이크', '수박케이크', '당근케이크', '녹차라떼', '호박', '음식', '케이크']",호박 라떼와 미니 단호박 케이크가 매력적이고 에메랄드빛 애월 바다가 보이는 호박다방,33.456005,126.30891,음식점,064-799-0778,https://api.cdn.visitjeju.net/photomng/imgpath/202111/11/b95f59b3-30f8-4ca2-bd8d-f8bc9416f5ca.jpg,https://api.cdn.visitjeju.net/photomng/thumbnailpath/202111/11/84facdcf-29ea-4de3-ad11-3d2bb2c187a9.jpg,8588.0,41,"케이크,녹차라떼,카페,음식",14
481,CNTS_000000000020305,치저스,제주특별자치도 제주시 구좌읍 비자림로 1785,"['스테이크', '치즈', '양식', '음식', '리조또', '미트볼파스타', '미트볼스파게티']",스위스 가정식요리 전문 푸드트럭. 주로 종달리에 위치하고 있음,33.4684316,126.7740314,음식점,070-7798-1447,https://api.cdn.visitjeju.net/photomng/imgpath/202111/05/14309c39-478c-44b7-a204-7a6004fcb9ef.JPG,https://api.cdn.visitjeju.net/photomng/thumbnailpath/202111/05/a4397568-11dc-4090-b0a7-670fde36e84f.JPG,8556.0,32,"양식,스테이크,음식",10
938,CONT_000000000501394,탑동산호전복,제주특별자치도 제주시 탑동로 59,"['전복어', '한식', '향토음식', '음식', '회', '전복', '전복죽', '전복돌솥밥', '전복뚝배기', '성게국']",20년 전통의 제주도 대표 향토음식 전복요리 전문점,33.5180133,126.5186772,음식점,064-758-0123,https://api.cdn.visitjeju.net/photomng/imgpath/202112/09/761e0fed-d11b-4a6e-a734-6ed1a0c5cd72.jpg,https://api.cdn.visitjeju.net/photomng/thumbnailpath/202112/09/2a0851a2-a125-43e8-b110-6eb66de9ade9.jpg,8546.0,39,"향토음식,전복죽,회,음식,전복뚝배기,전복,한식",25
1489,CONT_000000000501266,산방산초가집,제주특별자치도 서귀포시 안덕면 화순해안로 189,"['전복해물전골', '음식', '향토음식', '전복', '전복구이', '전복해물뚝배기', '전복죽', '고등어구이']",시원하고 얼큰한 전복해물전골,33.2455947,126.3387238,음식점,064-792-0688,https://api.cdn.visitjeju.net/photomng/imgpath/201804/30/10690b87-4fda-4fcb-93d1-5bd5c867a20f.jpg,https://api.cdn.visitjeju.net/photomng/thumbnailpath/201804/30/5b862da1-a433-4b73-b34e-39b07e2ce1d0.jpg,8541.0,40,"향토음식,전복죽,음식,전복,고등어구이",20
3357,CNTS_000000000021643,원조마라도짜장면,제주특별자치도 서귀포시 대정읍 마라로101번길 46,"['중식', '자장면', '톳', '짬뽕', '음식', '해물짬뽕', '탕수육']",마라도에 처음으로 짜장면을 판매한 원조 마라도짜장면,33.118538,126.26735,음식점,064-792-8506,https://api.cdn.visitjeju.net/photomng/imgpath/201804/30/a57cbb99-b0db-4b8f-8c03-3f9624b9c5d3.jpg,https://api.cdn.visitjeju.net/photomng/thumbnailpath/201804/30/04231669-e833-4f2e-80c4-1a6bf64d3058.jpg,8512.0,23,"중식,짬뽕,음식,탕수육",12
1345,CNTS_000000000020784,지금이순간,제주특별자치도 제주시 애월읍 애월로 15-1,"['카페', '드립커피', '수제티라미수', '음식', '아메리카노', '핸드드립커피', '티라미수', '카페라떼']","제주 애월, 애월한담공원 인근에 위치한 카페로 커피와 함께 제주의 바다 풍경을 즐길 수 있는 곳",33.45945,126.324005,음식점,064-799-1802,https://api.cdn.visitjeju.net/photomng/imgpath/202111/02/8ddeb48d-2426-4c03-96c5-c7dca8665a7e.jpg,https://api.cdn.visitjeju.net/photomng/thumbnailpath/202111/02/645e3f7c-513b-48f8-9a81-ec1f20e0691a.jpg,8477.0,40,"아메리카노,핸드드립커피,카페,카페라떼,음식",23
4087,CNTS_000000000020214,허파곶자왈화덕피자,제주특별자치도 서귀포시 안덕면 녹차분재로 58,"['화덕피자', '피자', '음료', '음식', '고르곤졸라화덕피자', '페페로니햄피자', '마르게리타화덕피자', '스파게티']",카멜리아힐 근처에서 빅사이즈 피자를 즐길 수 있는 곳,33.290855,126.301956,음식점,064-792-0990,https://api.cdn.visitjeju.net/photomng/imgpath/202111/11/5a3fcecc-cb10-4033-9a11-05c1234faad5.jpg,https://api.cdn.visitjeju.net/photomng/thumbnailpath/202111/11/88931826-ef74-408c-84d0-6a806f9a4574.jpg,8439.0,46,"음식,화덕피자,피자,음료",13
1028,CNTS_000000000021322,바굥식당,제주특별자치도 서귀포시 남원읍 태위로 87,"['진어에일', '진저비어', '정식', '음식']","훈훈한 사장님이 직접 차려주는 집밥 먹을 사람, 선착순 30명!",33.3060336,126.6580882,음식점,010-2054-3938,https://api.cdn.visitjeju.net/photomng/imgpath/202111/15/d0af39c5-fb41-488f-8999-556281fa6719.jpg,https://api.cdn.visitjeju.net/photomng/thumbnailpath/202111/15/624579fb-e610-41b9-876d-cbe5263ce03d.jpg,8430.0,15,"음식,정식",5
3855,CNTS_000000000020562,곱들락,제주특별자치도 제주시 조천읍 함덕18길 19,"['흑돼지', '전복', '오꼬노미야끼 볶음밥', '한식', '음식', '흑돼지구이', '양념갈비', '갈비', '된장찌개', '김치찌개', '육회', '비빔밥']",곱다는 뜻의 제주어 '곱들락',33.5394513,126.6704513,음식점,064-783-0992,https://api.cdn.visitjeju.net/photomng/imgpath/202111/16/e0fb03e8-fb22-44bc-865e-088ea75ed8ab.jpg,https://api.cdn.visitjeju.net/photomng/thumbnailpath/202111/16/f3a17a4d-b6e0-45e4-b6ef-93f96d45ee84.jpg,8429.0,54,"김치찌개,갈비,된장찌개,흑돼지구이,음식,한식,전복,양념갈비,흑돼지",36
3449,CNTS_000000000018350,지미스,제주특별자치도 제주시 우도면 우도해안길 1132,"['샤베트', '아이스크림', '우도땅콩아이스크림', '카페', '음식', '디저트', '우도']","우도, 땅콩아이스크림이 맛있는 집",33.4981207,126.9666872,음식점,010-9868-8633,https://api.cdn.visitjeju.net/photomng/imgpath/201804/30/69351066-2b64-4721-b722-ea42a1fe33ac.jpg,https://api.cdn.visitjeju.net/photomng/thumbnailpath/201804/30/b01309dd-9d0e-462a-90ba-f597f463a896.jpg,8356.0,32,"아이스크림,음식,카페,디저트",15
1359,CNTS_000000000020381,지붕위제주바다,제주특별자치도 제주시 구좌읍 평대2길 17,"['떡볶이', '전복밥', '쫄탱떡볶이', '카페', '음식', '즉석떡볶이', '치즈떡볶이', '전복버터구이', '에이드']",평대리 앞바다를 보며 먹는 쫄탱떡볶이,33.532677,126.83775,음식점,070-8875-7812,https://api.cdn.visitjeju.net/photomng/imgpath/202111/24/c854cb67-defd-4ac0-a6dc-de1f5e29a87e.jpg,https://api.cdn.visitjeju.net/photomng/thumbnailpath/202111/24/d6739f04-948d-4c0c-8bd3-e44b21d42eff.jpg,8354.0,42,"떡볶이,에이드,카페,음식",13
1484,CONT_000000000501432,화로향,제주특별자치도 제주시 관덕로15길 27,"['흑돼지', '생고기구이', '한식', '음식', '오겹살', '목살', '대패삼겹살']",제주 화산석 돌판에 구워 먹는 고소하고 쫄깃한 맛이 일품인 흑돼지 생고기 전문점,33.5157096,126.5267544,음식점,064-724-4050,https://api.cdn.visitjeju.net/photomng/imgpath/201804/30/28e7c54d-73f0-456d-9c0f-8e5de70e44a8.jpg,https://api.cdn.visitjeju.net/photomng/thumbnailpath/201804/30/71f36dea-21e4-4989-9ee6-f3093f3d89d7.jpg,8316.0,28,"음식,오겹살,목살,한식,흑돼지",16
3438,CNTS_000000000018621,우도동식이,제주특별자치도 제주시 우도면 우도해안길 276,"['회국수', '갈치조림', '전복해물탕', '음식']",칼칼한 갈치조림과 고등어구이로 알려진 해산물전문점 우도동식이,33.504036,126.94191,음식점,064-783-0117,https://api.cdn.visitjeju.net/photomng/imgpath/201804/30/665b80a5-c66f-4026-8d88-0dc08df11921.jpg,https://api.cdn.visitjeju.net/photomng/thumbnailpath/201804/30/92a7a021-5ebf-430e-9ff3-f55645a7c042.jpg,8302.0,17,"음식,갈치조림",7
3135,CNTS_000000000022908,제주한면가,제주특별자치도 제주시 조천읍 북선로 373,"['돔베국수', '고기국수', '보말비빔국수', '음식']",제주 향토 면요리와 흑돈 돔베고기를 판매하는 곳,33.51203,126.70003,음식점,064-782-3358,https://api.cdn.visitjeju.net/photomng/imgpath/201804/30/6156f2f7-a971-4f18-9b39-159784ff7ce1.jpg,https://api.cdn.visitjeju.net/photomng/thumbnailpath/201804/30/4e876cf6-2724-4457-abcf-8c6856d721bf.jpg,8181.0,19,"음식,고기국수",7
1154,CONT_000000000501290,쉬는팡가든,제주특별자치도 서귀포시 상예로 248,"['흑돼지', '동치미국수', '한식', '음식', '오겹살', '전복뚝배기']",제주 흑돼지(솥뚜껑구이)와 동치미국수를 전문으로 하는 곳,33.2667236,126.3944186,음식점,064-738-5833~4,https://api.cdn.visitjeju.net/photomng/imgpath/201804/30/fd534b89-6cef-4549-9624-839070a9d928.jpg,https://api.cdn.visitjeju.net/photomng/thumbnailpath/201804/30/4ed3cf59-f255-4669-bb35-be4c5917fe23.jpg,8130.0,25,"음식,전복뚝배기,오겹살,한식,흑돼지",19
2637,CNTS_000000000019266,한라앤탐,제주특별자치도 서귀포시 남원읍 위미중앙로300번길 8,"['정식', '보말죽', '보말라면', '보말정식', '음식', '라면']",위미 동백 군락지에 자리잡은 소박한 보말음식 전문점,33.272984,126.67426,음식점,064-764-6560,https://api.cdn.visitjeju.net/photomng/imgpath/201804/30/f0a5a944-2564-4d92-a829-5ae9510902cb.jpg,https://api.cdn.visitjeju.net/photomng/thumbnailpath/201804/30/547e46c1-2fcd-45ba-bc0d-bef9712b5c27.jpg,8112.0,22,"음식,정식,라면",8
1116,CNTS_000000000020330,아라파파 a la papa,제주특별자치도 제주시 국기로3길 2,"['베이커리', '홍차밀크잼', '제주도3대빵집', '음식', '빵', '아메리카노', '카페라떼', '카페모카', '카푸치노', '카라멜마끼아또', '샌드위치']",연동에 위치한 제주3대빵집 중 하나,33.4784467,126.4909905,음식점,064-725-8204,https://api.cdn.visitjeju.net/photomng/imgpath/201804/30/ac7e6c07-92b8-4412-8063-924d6df6ec1a.jpg,https://api.cdn.visitjeju.net/photomng/thumbnailpath/201804/30/c34b71d9-85f1-4ec1-8b17-e0187f2b6867.jpg,8110.0,57,"아메리카노,베이커리,카페모카,카푸치노,샌드위치,음식,카페라떼,빵",35
956,CNTS_000000000020130,ROAD129(로드129),제주특별자치도 제주시 애월읍 애월로 129,"['함박스테이크', '돈가스', '파스타', '양식', '음식', '크림파스타', '돈까스', '치즈돈까스', '냉소바']",애월읍에 위치한 전국맛집 TOP 1000에 선정된 수제함박스테이크 전문점,33.46433,126.321106,음식점,010-3076-6122,https://api.cdn.visitjeju.net/photomng/imgpath/201804/30/f6fdc864-e60e-4803-ba2b-2a7ff3664f62.png,https://api.cdn.visitjeju.net/photomng/thumbnailpath/201804/30/a1cb78bb-e894-4a37-8268-1a92ed3c181a.png,8079.0,40,"돈까스,양식,음식,크림파스타,파스타",19
510,CONT_000000000501283,성산진미식당,제주특별자치도 서귀포시 성산읍 일출로 290,"['해산물뚝배기', '전복', '바지락', '음식', '한식', '고등어조림', '오분작뚝배기', '옥돔구이', '갈치조림', '성게미역국', '전복죽', '고등어구이']",성산일출봉 주변에 위치한 제주 해물뚝배기와 해산물 요리 전문식당,33.4635435,126.9351837,음식점,064-783-2283,https://api.cdn.visitjeju.net/photomng/imgpath/201804/30/fc8618c7-9edb-484d-9007-1d554f3a89ec.jpg,https://api.cdn.visitjeju.net/photomng/thumbnailpath/201804/30/b9aee4f4-14e5-45c2-8829-799dbfec9815.jpg,8041.0,58,"옥돔구이,전복죽,고등어조림,음식,전복,갈치조림,성게미역국,한식,고등어구이",40
1927,CNTS_000000000022163,바다위에코끼리,제주특별자치도 제주시 한림읍 협재1길 27-6,"['카페', '디저트', '제주기념품', '음식', '레몬에이드', '에이드', '망고에이드', '자몽에이드', '스무디', '아메리카노']","제주 문화 콘텐츠를 발굴, 디자인, 재해석하여 관광 기념품과 디자인 서비스를 제공",33.499622,126.53119,음식점,070-4140-4832,https://api.cdn.visitjeju.net/photomng/imgpath/201804/30/bd3561ed-bfbf-401f-8838-31ec29379d78.jpg,https://api.cdn.visitjeju.net/photomng/thumbnailpath/201804/30/0e649af9-ca8a-460d-bcf9-8b313f24b8a5.jpg,8023.0,47,"아메리카노,스무디,디저트,카페,음식,에이드",23
4034,CNTS_000000000022497,카페콧수염,제주특별자치도 제주시 구좌읍 해맞이해안로 402,"['카페', '마카롱', '딸기우유', '디저트', '음식', '수제마카롱', '밀크티', '딸기라떼']",월정리해변 인근에 위치한 카페,33.559395,126.792915,음식점,064-782-6879,https://api.cdn.visitjeju.net/photomng/imgpath/201903/13/adeba7bc-e416-4ebe-905f-c1b6acb5d4ad.JPG,https://api.cdn.visitjeju.net/photomng/thumbnailpath/201903/13/4f81122f-d276-4699-90cc-b1b7804ba936.JPG,8023.0,33,"카페,음식,디저트",9
891,CNTS_000000000020384,이춘옥원조고등어쌈밥,제주특별자치도 제주시 애월읍 일주서로 7213,"['고등어', '고등어쌈밥', '음식', '고등어구이', '고등어조림', '생선구이정식', '생선조림', '갈치구이', '갈치조림', '제주갈치조림', '제주갈치구이', '옥돔구이', '전복뚝배기']",애월바다 앞 고등어쌈밥과 통갈치구이 전문점,33.488953,126.41871,음식점,064-799-9914,https://api.cdn.visitjeju.net/photomng/imgpath/202111/23/67658e27-908f-4caa-9f7d-b16cbdf3efb1.jpg,https://api.cdn.visitjeju.net/photomng/thumbnailpath/202111/23/8830dfb5-c521-4a0a-9513-312509e7e063.jpg,8005.0,71,"갈치구이,옥돔구이,생선구이정식,고등어,생선조림,고등어조림,음식,전복뚝배기,갈치조림,고등어구이,제주갈치구이",58
1836,CNTS_000000000022664,노라바,제주시 애월읍 구엄길 100,"['해물라면', '돌문어', '맥주', '음식', '도시락', '문어숙회', '라면']",매일 아침 직접 끓인 육수로 맛을 내는 해물라면,33.48283,126.376434,음식점,064-772-1900,https://api.cdn.visitjeju.net/photomng/imgpath/201804/30/bd4a991c-39fd-4fc0-a661-963b365d0996.jpg,https://api.cdn.visitjeju.net/photomng/thumbnailpath/201804/30/80929f50-21d8-4e8c-a6c1-4b1a2670ad8b.jpg,7997.0,26,"음식,라면,해물라면",10
3040,CNTS_000000000020361,명품한라봉아이스크림,제주특별자치도 서귀포시 성산읍 일주동로 5335,"['아이스크림', '땅콩아이스크림', '한라봉아이스크림', '음식']",특허를 받은 한라봉 아이스크림 전문점,33.3628276,126.8657009,음식점,02-783-7571,https://api.cdn.visitjeju.net/photomng/imgpath/201804/30/6cafd39a-c0a7-48c5-946b-cc5983d5330d.jpg,https://api.cdn.visitjeju.net/photomng/thumbnailpath/201804/30/ec61285d-033a-4005-ad7e-a7ead0bf066a.jpg,7994.0,25,"음식,아이스크림",8
537,CONT_000000000501429,현옥식당,제주특별자치도 제주시 서광로2길 35(오라일동),"['정식', '두루치기', '한식', '김치찌개', '된장찌개', '갈치조림', '동태찌개', '삼겹살', '한치물회', '한치']","두루치기, 정식, 동태찌개 등을 저렴한 가격에 제공하는 착한가격업소",33.4986,126.51429,음식점,064-757-3439,https://api.cdn.visitjeju.net/photomng/imgpath/202111/25/891ddbeb-28a9-4648-ac6e-6e8b7223f1cd.jpg,https://api.cdn.visitjeju.net/photomng/thumbnailpath/202111/25/072dbaef-6506-40f8-9cb1-ff7d32eb2e0c.jpg,7993.0,42,"김치찌개,두루치기,정식,된장찌개,갈치조림,한치,한식,삼겹살,한치물회",37
440,CNTS_000000000020116,만민식당,제주특별자치도 제주시 한림읍 중산간서로 4618-1,"['해물전골', '갈치조림', '한식', '음식', '제주갈치조림', '해물찜']",한림읍에 위치한 만민 식당은 관광객보다 현지인의 발길이 끊이지 않는 갈치조림 맛집이다. 2018년 확장해 이전하면서 새로 깔끔하게 단장했다. ,33.3839454,126.2843175,음식점,064-796-4473,https://api.cdn.visitjeju.net/photomng/imgpath/202002/21/8c94aa61-4f68-42e7-b319-f78d4f0e45c4.jpg,https://api.cdn.visitjeju.net/photomng/thumbnailpath/202002/21/3aa2a44e-2211-4fa7-aae2-c055745d3419.jpg,7973.0,26,"한식,음식,갈치조림",10
429,CNTS_000000000020477,신산리마을카페,제주특별자치도 서귀포시 성산읍 환해장성로 33,"['카페', '아이스크림', '녹차', '초콜릿', '음식', '아메리카노', '카페라떼', '청귤차']",돌고래가 뛰노는 바다가 보이는 신산리의 작은 카페,33.37661,126.876945,음식점,064-784-4333,https://api.cdn.visitjeju.net/photomng/imgpath/202112/02/26398b0f-6cc4-44c0-8ab4-5927124c0da8.jpg,https://api.cdn.visitjeju.net/photomng/thumbnailpath/202112/02/13f1979e-1304-4902-85f5-cd66fc837692.jpg,7937.0,33,"아메리카노,카페,카페라떼,음식,아이스크림",22
2575,CNTS_000000000021077,거멍국수,제주특별자치도 서귀포시 안덕면 사계로114번길 53-14,"['우수관광사업체', '고기국수', '성게국수', '회국수', '음식', '비빔국수', '멸치국수']",듣도 보도 못한 파프리카 국수 전문점,33.24444,126.304474,음식점,064-792-8787,https://api.cdn.visitjeju.net/photomng/imgpath/202111/05/5007ae15-d312-4ad7-8cb1-d3bc601985cd.jpg,https://api.cdn.visitjeju.net/photomng/thumbnailpath/202111/05/f0dd6fc7-fca4-4dd9-8b35-e518c8470e8d.jpg,7910.0,34,"음식,고기국수",7
1346,CNTS_000000000018370,카페쉼표,제주특별자치도 제주시 한림읍 한림로 359,"['커피', '빙수', '음식', '아메리카노', '카페라떼', '바닐라라떼', '카푸치노', '카페모카']",협재해수욕장에 위치한 비양도가 보이는 카페이다.,33.3951682,126.2418996,음식점,064-796-7790,https://api.cdn.visitjeju.net/photomng/imgpath/202111/02/e97fc49c-5860-43e5-98fd-4a268875ed8c.jpg,https://api.cdn.visitjeju.net/photomng/thumbnailpath/202111/02/20a04be3-a678-4f0e-8e07-07e853b3d7f4.jpg,7902.0,35,"아메리카노,카페모카,바닐라라떼,카푸치노,음식,커피,카페라떼,빙수",35
